{
    "account": {
        "account_number": "12345678",
        "sort_code": "12-34-56",
        "balance": 2500.0,
        "currency": "GBP",
        "account_holder": "John Doe"
    },
    "transactions": [
        {
            "transaction_id": "txn001",
            "date": "2024-01-01",
            "amount": 30.78,
            "description": "Salary Deposit",
            "category": "Income",
            "merchant": null
        },
        {
            "transaction_id": "txn002",
            "date": "2024-01-05",
            "amount": -1.88,
            "description": "Shopping",
            "category": "Shopping",
            "merchant": {
                "address": {
                    "address": "20 Elm Street",
                    "city": "London",
                    "country": "GB",
                    "latitude": 51.5489,
                    "longitude": 0.0121,
                    "postcode": "MN21 9",
                    "region": "Greater London"
                },
                "created": "2010-01-01T00:00:00Z",
                "group_id": "grp_00008zIcpbBOaAr7TTP3sv",
                "id": "merch_3d86e53f8eea62db888ffe",
                "logo": "https://example.com/merchant_logo.jpg",
                "emoji": "\ud83d\ude97",
                "name": "Uber",
                "category": "fuel_station"
            }
        },
        {
            "transaction_id": "txn003",
            "date": "2024-01-10",
            "amount": -213.55,
            "description": "Entertainment",
            "category": "Entertainment",
            "merchant": {
                "address": {
                    "address": "55 Station Road",
                    "city": "London",
                    "country": "GB",
                    "latitude": 51.523,
                    "longitude": -0.2311,
                    "postcode": "PH84 6",
                    "region": "Greater London"
                },
                "created": "2010-01-01T00:00:00Z",
                "group_id": "grp_00008zIcpbBOaAr7TTP3sv",
                "id": "merch_c84de8979a266327e04edc",
                "logo": "https://example.com/merchant_logo.jpg",
                "emoji": "\ud83e\udd6a",
                "name": "Uber",
                "category": "fashion_store"
            }
        },
        {
            "transaction_id": "txn004",
            "date": "2024-01-11",
            "amount": -229.35,
            "description": "Shopping",
            "category": "Shopping",
            "merchant": {
                "address": {
                    "address": "84 High Street",
                    "city": "London",
                    "country": "GB",
                    "latitude": 51.4842,
                    "longitude": -0.1877,
                    "postcode": "XL98 7",
                    "region": "Greater London"
                },
                "created": "2010-01-01T00:00:00Z",
                "group_id": "grp_00008zIcpbBOaAr7TTP3sv",
                "id": "merch_f774a33f93a3ad678f871e",
                "logo": "https://example.com/merchant_logo.jpg",
                "emoji": "\ud83d\udce6",
                "name": "Cinema",
                "category": "fashion_store"
            }
        },
        {
            "transaction_id": "txn005",
            "date": "2024-01-15",
            "amount": 144.02,
            "description": "Salary Deposit",
            "category": "Income",
            "merchant": null
        },
        {
            "transaction_id": "txn006",
            "date": "2024-01-20",
            "amount": 155.51,
            "description": "Salary Deposit",
            "category": "Income",
            "merchant": null
        },
        {
            "transaction_id": "txn007",
            "date": "2024-01-24",
            "amount": -247.8,
            "description": "Dining Out",
            "category": "Dining Out",
            "merchant": {
                "address": {
                    "address": "76 Park Avenue",
                    "city": "London",
                    "country": "GB",
                    "latitude": 51.4574,
                    "longitude": 0.0078,
                    "postcode": "EM29 5",
                    "region": "Greater London"
                },
                "created": "2010-01-01T00:00:00Z",
                "group_id": "grp_00008zIcpbBOaAr7TTP3sv",
                "id": "merch_ecc425a21da5720251f587",
                "logo": "https://example.com/merchant_logo.jpg",
                "emoji": "\ud83c\udfa5",
                "name": "BP",
                "category": "coffee_shop"
            }
        },
        {
            "transaction_id": "txn008",
            "date": "2024-01-25",
            "amount": -179.51,
            "description": "Dining Out",
            "category": "Dining Out",
            "merchant": {
                "address": {
                    "address": "83 Station Road",
                    "city": "London",
                    "country": "GB",
                    "latitude": 51.4527,
                    "longitude": -0.014,
                    "postcode": "SX96 3",
                    "region": "Greater London"
                },
                "created": "2010-01-01T00:00:00Z",
                "group_id": "grp_00008zIcpbBOaAr7TTP3sv",
                "id": "merch_f3f82c75909550da32c104",
                "logo": "https://example.com/merchant_logo.jpg",
                "emoji": "\ud83e\udd6a",
                "name": "McDonald's",
                "category": "fashion_store"
            }
        },
        {
            "transaction_id": "txn009",
            "date": "2024-01-29",
            "amount": -274.02,
            "description": "Entertainment",
            "category": "Entertainment",
            "merchant": {
                "address": {
                    "address": "87 Park Avenue",
                    "city": "London",
                    "country": "GB",
                    "latitude": 51.5106,
                    "longitude": -0.2234,
                    "postcode": "JK31 2",
                    "region": "Greater London"
                },
                "created": "2010-01-01T00:00:00Z",
                "group_id": "grp_00008zIcpbBOaAr7TTP3sv",
                "id": "merch_1959c51dbf99b04ee98669",
                "logo": "https://example.com/merchant_logo.jpg",
                "emoji": "\ud83c\udfea",
                "name": "Nando's",
                "category": "fashion_store"
            }
        },
        {
            "transaction_id": "txn010",
            "date": "2024-02-03",
            "amount": -211.06,
            "description": "Dining Out",
            "category": "Dining Out",
            "merchant": {
                "address": {
                    "address": "20 High Street",
                    "city": "London",
                    "country": "GB",
                    "latitude": 51.5364,
                    "longitude": -0.0156,
                    "postcode": "UU06 3",
                    "region": "Greater London"
                },
                "created": "2010-01-01T00:00:00Z",
                "group_id": "grp_00008zIcpbBOaAr7TTP3sv",
                "id": "merch_cc0ffe80207a441d48279a",
                "logo": "https://example.com/merchant_logo.jpg",
                "emoji": "\ud83c\udfa5",
                "name": "Nando's",
                "category": "fashion_store"
            }
        },
        {
            "transaction_id": "txn011",
            "date": "2024-02-05",
            "amount": 109.02,
            "description": "Salary Deposit",
            "category": "Income",
            "merchant": null
        },
        {
            "transaction_id": "txn012",
            "date": "2024-02-07",
            "amount": -144.83,
            "description": "Groceries",
            "category": "Groceries",
            "merchant": {
                "address": {
                    "address": "26 High Street",
                    "city": "London",
                    "country": "GB",
                    "latitude": 51.491,
                    "longitude": 0.0274,
                    "postcode": "YB81 9",
                    "region": "Greater London"
                },
                "created": "2010-01-01T00:00:00Z",
                "group_id": "grp_00008zIcpbBOaAr7TTP3sv",
                "id": "merch_dbef7f126222ee3ea834d5",
                "logo": "https://example.com/merchant_logo.jpg",
                "emoji": "\ud83c\udfea",
                "name": "Uber",
                "category": "grocery_store"
            }
        },
        {
            "transaction_id": "txn013",
            "date": "2024-02-11",
            "amount": -155.24,
            "description": "Dining Out",
            "category": "Dining Out",
            "merchant": {
                "address": {
                    "address": "79 Elm Street",
                    "city": "London",
                    "country": "GB",
                    "latitude": 51.4683,
                    "longitude": -0.2372,
                    "postcode": "LO96 3",
                    "region": "Greater London"
                },
                "created": "2010-01-01T00:00:00Z",
                "group_id": "grp_00008zIcpbBOaAr7TTP3sv",
                "id": "merch_de7a80c6131e8a90274b49",
                "logo": "https://example.com/merchant_logo.jpg",
                "emoji": "\ud83c\udfa5",
                "name": "BP",
                "category": "fuel_station"
            }
        },
        {
            "transaction_id": "txn014",
            "date": "2024-02-14",
            "amount": -261.79,
            "description": "Entertainment",
            "category": "Entertainment",
            "merchant": {
                "address": {
                    "address": "96 Park Avenue",
                    "city": "London",
                    "country": "GB",
                    "latitude": 51.4965,
                    "longitude": -0.1269,
                    "postcode": "FC67 2",
                    "region": "Greater London"
                },
                "created": "2010-01-01T00:00:00Z",
                "group_id": "grp_00008zIcpbBOaAr7TTP3sv",
                "id": "merch_ae436f3c0660e465288341",
                "logo": "https://example.com/merchant_logo.jpg",
                "emoji": "\ud83c\udfea",
                "name": "H&M",
                "category": "entertainment"
            }
        },
        {
            "transaction_id": "txn015",
            "date": "2024-02-17",
            "amount": 25.36,
            "description": "Salary Deposit",
            "category": "Income",
            "merchant": null
        },
        {
            "transaction_id": "txn016",
            "date": "2024-02-19",
            "amount": -279.78,
            "description": "Groceries",
            "category": "Groceries",
            "merchant": {
                "address": {
                    "address": "65 Elm Street",
                    "city": "London",
                    "country": "GB",
                    "latitude": 51.4824,
                    "longitude": 0.0739,
                    "postcode": "QV93 2",
                    "region": "Greater London"
                },
                "created": "2010-01-01T00:00:00Z",
                "group_id": "grp_00008zIcpbBOaAr7TTP3sv",
                "id": "merch_882d62c3b4687bec47c330",
                "logo": "https://example.com/merchant_logo.jpg",
                "emoji": "\ud83d\udce6",
                "name": "Cinema",
                "category": "transportation"
            }
        },
        {
            "transaction_id": "txn017",
            "date": "2024-02-24",
            "amount": -207.51,
            "description": "Food & Drink",
            "category": "Food & Drink",
            "merchant": {
                "address": {
                    "address": "51 High Street",
                    "city": "London",
                    "country": "GB",
                    "latitude": 51.5487,
                    "longitude": 0.0965,
                    "postcode": "MP64 7",
                    "region": "Greater London"
                },
                "created": "2010-01-01T00:00:00Z",
                "group_id": "grp_00008zIcpbBOaAr7TTP3sv",
                "id": "merch_ea40106e1113c3610ccd7d",
                "logo": "https://example.com/merchant_logo.jpg",
                "emoji": "\ud83d\udce6",
                "name": "Uber",
                "category": "restaurant"
            }
        },
        {
            "transaction_id": "txn018",
            "date": "2024-02-28",
            "amount": -196.3,
            "description": "Entertainment",
            "category": "Entertainment",
            "merchant": {
                "address": {
                    "address": "34 Station Road",
                    "city": "London",
                    "country": "GB",
                    "latitude": 51.4951,
                    "longitude": -0.0508,
                    "postcode": "HL16 0",
                    "region": "Greater London"
                },
                "created": "2010-01-01T00:00:00Z",
                "group_id": "grp_00008zIcpbBOaAr7TTP3sv",
                "id": "merch_8685d98e22c77953fe351c",
                "logo": "https://example.com/merchant_logo.jpg",
                "emoji": "\ud83d\ude97",
                "name": "BP",
                "category": "online_retail"
            }
        },
        {
            "transaction_id": "txn019",
            "date": "2024-03-02",
            "amount": -151.51,
            "description": "Dining Out",
            "category": "Dining Out",
            "merchant": {
                "address": {
                    "address": "22 Park Avenue",
                    "city": "London",
                    "country": "GB",
                    "latitude": 51.5249,
                    "longitude": -0.0768,
                    "postcode": "VO08 5",
                    "region": "Greater London"
                },
                "created": "2010-01-01T00:00:00Z",
                "group_id": "grp_00008zIcpbBOaAr7TTP3sv",
                "id": "merch_d15f3c521e49cec5d991bd",
                "logo": "https://example.com/merchant_logo.jpg",
                "emoji": "\ud83e\udd6a",
                "name": "H&M",
                "category": "online_retail"
            }
        },
        {
            "transaction_id": "txn020",
            "date": "2024-03-05",
            "amount": 11.73,
            "description": "Salary Deposit",
            "category": "Income",
            "merchant": null
        },
        {
            "transaction_id": "txn021",
            "date": "2024-03-09",
            "amount": -184.47,
            "description": "Transportation",
            "category": "Transportation",
            "merchant": {
                "address": {
                    "address": "99 High Street",
                    "city": "London",
                    "country": "GB",
                    "latitude": 51.4958,
                    "longitude": -0.2482,
                    "postcode": "YI96 1",
                    "region": "Greater London"
                },
                "created": "2010-01-01T00:00:00Z",
                "group_id": "grp_00008zIcpbBOaAr7TTP3sv",
                "id": "merch_96c0ab3aeef47fe3eac52b",
                "logo": "https://example.com/merchant_logo.jpg",
                "emoji": "\ud83d\ude97",
                "name": "Tesco",
                "category": "online_retail"
            }
        },
        {
            "transaction_id": "txn022",
            "date": "2024-03-11",
            "amount": -20.24,
            "description": "Shopping",
            "category": "Shopping",
            "merchant": {
                "address": {
                    "address": "26 Station Road",
                    "city": "London",
                    "country": "GB",
                    "latitude": 51.5362,
                    "longitude": 0.0621,
                    "postcode": "NI16 3",
                    "region": "Greater London"
                },
                "created": "2010-01-01T00:00:00Z",
                "group_id": "grp_00008zIcpbBOaAr7TTP3sv",
                "id": "merch_b44dd4de095dd4b9d9b042",
                "logo": "https://example.com/merchant_logo.jpg",
                "emoji": "\u2615\ufe0f",
                "name": "Nando's",
                "category": "transportation"
            }
        },
        {
            "transaction_id": "txn023",
            "date": "2024-03-16",
            "amount": -140.77,
            "description": "Dining Out",
            "category": "Dining Out",
            "merchant": {
                "address": {
                    "address": "80 Elm Street",
                    "city": "London",
                    "country": "GB",
                    "latitude": 51.5222,
                    "longitude": -0.1073,
                    "postcode": "NS73 2",
                    "region": "Greater London"
                },
                "created": "2010-01-01T00:00:00Z",
                "group_id": "grp_00008zIcpbBOaAr7TTP3sv",
                "id": "merch_a5f00fadafad59d8d49c51",
                "logo": "https://example.com/merchant_logo.jpg",
                "emoji": "\u26fd",
                "name": "Nando's",
                "category": "grocery_store"
            }
        },
        {
            "transaction_id": "txn024",
            "date": "2024-03-19",
            "amount": -248.32,
            "description": "Groceries",
            "category": "Groceries",
            "merchant": {
                "address": {
                    "address": "27 High Street",
                    "city": "London",
                    "country": "GB",
                    "latitude": 51.5473,
                    "longitude": -0.0651,
                    "postcode": "OJ20 3",
                    "region": "Greater London"
                },
                "created": "2010-01-01T00:00:00Z",
                "group_id": "grp_00008zIcpbBOaAr7TTP3sv",
                "id": "merch_21586dd9d47f0514e55644",
                "logo": "https://example.com/merchant_logo.jpg",
                "emoji": "\ud83c\udf54",
                "name": "BP",
                "category": "transportation"
            }
        },
        {
            "transaction_id": "txn025",
            "date": "2024-03-24",
            "amount": -204.93,
            "description": "Bills & Utilities",
            "category": "Bills & Utilities",
            "merchant": {
                "address": {
                    "address": "87 Main Street",
                    "city": "London",
                    "country": "GB",
                    "latitude": 51.4635,
                    "longitude": -0.1396,
                    "postcode": "FN23 1",
                    "region": "Greater London"
                },
                "created": "2010-01-01T00:00:00Z",
                "group_id": "grp_00008zIcpbBOaAr7TTP3sv",
                "id": "merch_2d017f894238418c052135",
                "logo": "https://example.com/merchant_logo.jpg",
                "emoji": "\ud83c\udf57",
                "name": "McDonald's",
                "category": "fashion_store"
            }
        },
        {
            "transaction_id": "txn026",
            "date": "2024-03-25",
            "amount": -145.2,
            "description": "Bills & Utilities",
            "category": "Bills & Utilities",
            "merchant": {
                "address": {
                    "address": "28 Park Avenue",
                    "city": "London",
                    "country": "GB",
                    "latitude": 51.4596,
                    "longitude": 0.0772,
                    "postcode": "HL83 2",
                    "region": "Greater London"
                },
                "created": "2010-01-01T00:00:00Z",
                "group_id": "grp_00008zIcpbBOaAr7TTP3sv",
                "id": "merch_cfc03eba5038543af247db",
                "logo": "https://example.com/merchant_logo.jpg",
                "emoji": "\ud83d\udce6",
                "name": "Tesco",
                "category": "fashion_store"
            }
        },
        {
            "transaction_id": "txn027",
            "date": "2024-03-28",
            "amount": -178.17,
            "description": "Groceries",
            "category": "Groceries",
            "merchant": {
                "address": {
                    "address": "11 High Street",
                    "city": "London",
                    "country": "GB",
                    "latitude": 51.4684,
                    "longitude": -0.1798,
                    "postcode": "ZD73 8",
                    "region": "Greater London"
                },
                "created": "2010-01-01T00:00:00Z",
                "group_id": "grp_00008zIcpbBOaAr7TTP3sv",
                "id": "merch_9f5985fd03a13913cad238",
                "logo": "https://example.com/merchant_logo.jpg",
                "emoji": "\u2615\ufe0f",
                "name": "Tesco",
                "category": "transportation"
            }
        },
        {
            "transaction_id": "txn028",
            "date": "2024-03-31",
            "amount": 68.63,
            "description": "Salary Deposit",
            "category": "Income",
            "merchant": null
        },
        {
            "transaction_id": "txn029",
            "date": "2024-04-05",
            "amount": -194.55,
            "description": "Bills & Utilities",
            "category": "Bills & Utilities",
            "merchant": {
                "address": {
                    "address": "81 Station Road",
                    "city": "London",
                    "country": "GB",
                    "latitude": 51.5358,
                    "longitude": -0.1505,
                    "postcode": "UL93 2",
                    "region": "Greater London"
                },
                "created": "2010-01-01T00:00:00Z",
                "group_id": "grp_00008zIcpbBOaAr7TTP3sv",
                "id": "merch_5279982190f37732dcd01f",
                "logo": "https://example.com/merchant_logo.jpg",
                "emoji": "\ud83c\udfa5",
                "name": "BP",
                "category": "fashion_store"
            }
        },
        {
            "transaction_id": "txn030",
            "date": "2024-04-10",
            "amount": 8.03,
            "description": "Salary Deposit",
            "category": "Income",
            "merchant": null
        },
        {
            "transaction_id": "txn031",
            "date": "2024-04-13",
            "amount": 4.48,
            "description": "Salary Deposit",
            "category": "Income",
            "merchant": null
        },
        {
            "transaction_id": "txn032",
            "date": "2024-04-18",
            "amount": -40.32,
            "description": "Transportation",
            "category": "Transportation",
            "merchant": {
                "address": {
                    "address": "50 Elm Street",
                    "city": "London",
                    "country": "GB",
                    "latitude": 51.4657,
                    "longitude": 0.0693,
                    "postcode": "WA68 0",
                    "region": "Greater London"
                },
                "created": "2010-01-01T00:00:00Z",
                "group_id": "grp_00008zIcpbBOaAr7TTP3sv",
                "id": "merch_894fd4ae9fbc54aa61db86",
                "logo": "https://example.com/merchant_logo.jpg",
                "emoji": "\ud83d\udce6",
                "name": "McDonald's",
                "category": "transportation"
            }
        },
        {
            "transaction_id": "txn033",
            "date": "2024-04-23",
            "amount": -169.63,
            "description": "Dining Out",
            "category": "Dining Out",
            "merchant": {
                "address": {
                    "address": "87 Main Street",
                    "city": "London",
                    "country": "GB",
                    "latitude": 51.5073,
                    "longitude": -0.1593,
                    "postcode": "FQ94 6",
                    "region": "Greater London"
                },
                "created": "2010-01-01T00:00:00Z",
                "group_id": "grp_00008zIcpbBOaAr7TTP3sv",
                "id": "merch_8a9d31cc5ac61e85cf3903",
                "logo": "https://example.com/merchant_logo.jpg",
                "emoji": "\ud83d\udce6",
                "name": "Nando's",
                "category": "restaurant"
            }
        },
        {
            "transaction_id": "txn034",
            "date": "2024-04-28",
            "amount": -211.68,
            "description": "Food & Drink",
            "category": "Food & Drink",
            "merchant": {
                "address": {
                    "address": "99 Park Avenue",
                    "city": "London",
                    "country": "GB",
                    "latitude": 51.5236,
                    "longitude": 0.0503,
                    "postcode": "AS14 2",
                    "region": "Greater London"
                },
                "created": "2010-01-01T00:00:00Z",
                "group_id": "grp_00008zIcpbBOaAr7TTP3sv",
                "id": "merch_71c324f804f0a349d6b737",
                "logo": "https://example.com/merchant_logo.jpg",
                "emoji": "\ud83e\udd6a",
                "name": "Amazon",
                "category": "restaurant"
            }
        },
        {
            "transaction_id": "txn035",
            "date": "2024-04-30",
            "amount": 243.61,
            "description": "Salary Deposit",
            "category": "Income",
            "merchant": null
        },
        {
            "transaction_id": "txn036",
            "date": "2024-05-03",
            "amount": -103.74,
            "description": "Food & Drink",
            "category": "Food & Drink",
            "merchant": {
                "address": {
                    "address": "32 Elm Street",
                    "city": "London",
                    "country": "GB",
                    "latitude": 51.503,
                    "longitude": -0.0762,
                    "postcode": "QS28 6",
                    "region": "Greater London"
                },
                "created": "2010-01-01T00:00:00Z",
                "group_id": "grp_00008zIcpbBOaAr7TTP3sv",
                "id": "merch_45b1a6f5cd2f791d2efc15",
                "logo": "https://example.com/merchant_logo.jpg",
                "emoji": "\u26fd",
                "name": "H&M",
                "category": "restaurant"
            }
        },
        {
            "transaction_id": "txn037",
            "date": "2024-05-06",
            "amount": -40.68,
            "description": "Shopping",
            "category": "Shopping",
            "merchant": {
                "address": {
                    "address": "37 High Street",
                    "city": "London",
                    "country": "GB",
                    "latitude": 51.5248,
                    "longitude": -0.1409,
                    "postcode": "FP87 6",
                    "region": "Greater London"
                },
                "created": "2010-01-01T00:00:00Z",
                "group_id": "grp_00008zIcpbBOaAr7TTP3sv",
                "id": "merch_1fc0b6fc11ec3cde9cac9d",
                "logo": "https://example.com/merchant_logo.jpg",
                "emoji": "\ud83d\uded2",
                "name": "Amazon",
                "category": "online_retail"
            }
        },
        {
            "transaction_id": "txn038",
            "date": "2024-05-07",
            "amount": 215.18,
            "description": "Salary Deposit",
            "category": "Income",
            "merchant": null
        },
        {
            "transaction_id": "txn039",
            "date": "2024-05-09",
            "amount": 147.43,
            "description": "Salary Deposit",
            "category": "Income",
            "merchant": null
        },
        {
            "transaction_id": "txn040",
            "date": "2024-05-12",
            "amount": 226.02,
            "description": "Salary Deposit",
            "category": "Income",
            "merchant": null
        },
        {
            "transaction_id": "txn041",
            "date": "2024-05-15",
            "amount": -55.8,
            "description": "Dining Out",
            "category": "Dining Out",
            "merchant": {
                "address": {
                    "address": "21 Station Road",
                    "city": "London",
                    "country": "GB",
                    "latitude": 51.4636,
                    "longitude": -0.1725,
                    "postcode": "WE94 6",
                    "region": "Greater London"
                },
                "created": "2010-01-01T00:00:00Z",
                "group_id": "grp_00008zIcpbBOaAr7TTP3sv",
                "id": "merch_8c215b5291a4c9cdb441cf",
                "logo": "https://example.com/merchant_logo.jpg",
                "emoji": "\ud83c\udfea",
                "name": "McDonald's",
                "category": "grocery_store"
            }
        },
        {
            "transaction_id": "txn042",
            "date": "2024-05-18",
            "amount": -37.91,
            "description": "Shopping",
            "category": "Shopping",
            "merchant": {
                "address": {
                    "address": "7 Elm Street",
                    "city": "London",
                    "country": "GB",
                    "latitude": 51.4576,
                    "longitude": 0.0927,
                    "postcode": "ZW13 2",
                    "region": "Greater London"
                },
                "created": "2010-01-01T00:00:00Z",
                "group_id": "grp_00008zIcpbBOaAr7TTP3sv",
                "id": "merch_c38e67837ad6f2ae55b093",
                "logo": "https://example.com/merchant_logo.jpg",
                "emoji": "\ud83d\uded2",
                "name": "H&M",
                "category": "online_retail"
            }
        },
        {
            "transaction_id": "txn043",
            "date": "2024-05-21",
            "amount": -292.37,
            "description": "Groceries",
            "category": "Groceries",
            "merchant": {
                "address": {
                    "address": "90 Park Avenue",
                    "city": "London",
                    "country": "GB",
                    "latitude": 51.4502,
                    "longitude": -0.0344,
                    "postcode": "HD77 9",
                    "region": "Greater London"
                },
                "created": "2010-01-01T00:00:00Z",
                "group_id": "grp_00008zIcpbBOaAr7TTP3sv",
                "id": "merch_9cb0d2823293c790d9ebf8",
                "logo": "https://example.com/merchant_logo.jpg",
                "emoji": "\ud83c\udfea",
                "name": "Tesco",
                "category": "online_retail"
            }
        },
        {
            "transaction_id": "txn044",
            "date": "2024-05-26",
            "amount": -120.48,
            "description": "Shopping",
            "category": "Shopping",
            "merchant": {
                "address": {
                    "address": "47 Main Street",
                    "city": "London",
                    "country": "GB",
                    "latitude": 51.4866,
                    "longitude": 0.0961,
                    "postcode": "GZ80 6",
                    "region": "Greater London"
                },
                "created": "2010-01-01T00:00:00Z",
                "group_id": "grp_00008zIcpbBOaAr7TTP3sv",
                "id": "merch_fb2414210f49f6ff6643bc",
                "logo": "https://example.com/merchant_logo.jpg",
                "emoji": "\ud83e\udd6a",
                "name": "Amazon",
                "category": "online_retail"
            }
        },
        {
            "transaction_id": "txn045",
            "date": "2024-05-31",
            "amount": -237.48,
            "description": "Transportation",
            "category": "Transportation",
            "merchant": {
                "address": {
                    "address": "71 Main Street",
                    "city": "London",
                    "country": "GB",
                    "latitude": 51.5055,
                    "longitude": -0.1265,
                    "postcode": "FP99 7",
                    "region": "Greater London"
                },
                "created": "2010-01-01T00:00:00Z",
                "group_id": "grp_00008zIcpbBOaAr7TTP3sv",
                "id": "merch_ef2a70eaf397b0440cf8b1",
                "logo": "https://example.com/merchant_logo.jpg",
                "emoji": "\ud83c\udf54",
                "name": "Nando's",
                "category": "fuel_station"
            }
        },
        {
            "transaction_id": "txn046",
            "date": "2024-06-03",
            "amount": -48.5,
            "description": "Transportation",
            "category": "Transportation",
            "merchant": {
                "address": {
                    "address": "17 Park Avenue",
                    "city": "London",
                    "country": "GB",
                    "latitude": 51.5116,
                    "longitude": 0.0946,
                    "postcode": "FU85 3",
                    "region": "Greater London"
                },
                "created": "2010-01-01T00:00:00Z",
                "group_id": "grp_00008zIcpbBOaAr7TTP3sv",
                "id": "merch_d6f2ced411caef0febbaf4",
                "logo": "https://example.com/merchant_logo.jpg",
                "emoji": "\ud83e\udd6a",
                "name": "Subway",
                "category": "online_retail"
            }
        },
        {
            "transaction_id": "txn047",
            "date": "2024-06-05",
            "amount": -215.48,
            "description": "Bills & Utilities",
            "category": "Bills & Utilities",
            "merchant": {
                "address": {
                    "address": "27 High Street",
                    "city": "London",
                    "country": "GB",
                    "latitude": 51.4751,
                    "longitude": -0.0326,
                    "postcode": "KW91 9",
                    "region": "Greater London"
                },
                "created": "2010-01-01T00:00:00Z",
                "group_id": "grp_00008zIcpbBOaAr7TTP3sv",
                "id": "merch_51779e532b904a88fae582",
                "logo": "https://example.com/merchant_logo.jpg",
                "emoji": "\ud83c\udfea",
                "name": "McDonald's",
                "category": "online_retail"
            }
        },
        {
            "transaction_id": "txn048",
            "date": "2024-06-08",
            "amount": -116.97,
            "description": "Shopping",
            "category": "Shopping",
            "merchant": {
                "address": {
                    "address": "16 Main Street",
                    "city": "London",
                    "country": "GB",
                    "latitude": 51.4788,
                    "longitude": 0.0273,
                    "postcode": "XE34 3",
                    "region": "Greater London"
                },
                "created": "2010-01-01T00:00:00Z",
                "group_id": "grp_00008zIcpbBOaAr7TTP3sv",
                "id": "merch_463699ac58ce440d7a3339",
                "logo": "https://example.com/merchant_logo.jpg",
                "emoji": "\ud83d\udc57",
                "name": "Uber",
                "category": "entertainment"
            }
        },
        {
            "transaction_id": "txn049",
            "date": "2024-06-10",
            "amount": 29.82,
            "description": "Salary Deposit",
            "category": "Income",
            "merchant": null
        },
        {
            "transaction_id": "txn050",
            "date": "2024-06-15",
            "amount": 165.35,
            "description": "Salary Deposit",
            "category": "Income",
            "merchant": null
        },
        {
            "transaction_id": "txn051",
            "date": "2024-06-17",
            "amount": -218.11,
            "description": "Transportation",
            "category": "Transportation",
            "merchant": {
                "address": {
                    "address": "95 Park Avenue",
                    "city": "London",
                    "country": "GB",
                    "latitude": 51.4579,
                    "longitude": 0.0715,
                    "postcode": "UH15 8",
                    "region": "Greater London"
                },
                "created": "2010-01-01T00:00:00Z",
                "group_id": "grp_00008zIcpbBOaAr7TTP3sv",
                "id": "merch_ac5c57bd1d0c7e758f57f1",
                "logo": "https://example.com/merchant_logo.jpg",
                "emoji": "\ud83e\udd6a",
                "name": "Starbucks",
                "category": "fashion_store"
            }
        },
        {
            "transaction_id": "txn052",
            "date": "2024-06-22",
            "amount": -220.09,
            "description": "Bills & Utilities",
            "category": "Bills & Utilities",
            "merchant": {
                "address": {
                    "address": "71 Station Road",
                    "city": "London",
                    "country": "GB",
                    "latitude": 51.5183,
                    "longitude": 0.084,
                    "postcode": "ZY14 5",
                    "region": "Greater London"
                },
                "created": "2010-01-01T00:00:00Z",
                "group_id": "grp_00008zIcpbBOaAr7TTP3sv",
                "id": "merch_024724f65f602affc9ceae",
                "logo": "https://example.com/merchant_logo.jpg",
                "emoji": "\ud83d\ude97",
                "name": "Nando's",
                "category": "online_retail"
            }
        },
        {
            "transaction_id": "txn053",
            "date": "2024-06-23",
            "amount": -260.63,
            "description": "Groceries",
            "category": "Groceries",
            "merchant": {
                "address": {
                    "address": "37 High Street",
                    "city": "London",
                    "country": "GB",
                    "latitude": 51.5474,
                    "longitude": -0.1033,
                    "postcode": "NE02 3",
                    "region": "Greater London"
                },
                "created": "2010-01-01T00:00:00Z",
                "group_id": "grp_00008zIcpbBOaAr7TTP3sv",
                "id": "merch_d1d989f8b8a97985882b6e",
                "logo": "https://example.com/merchant_logo.jpg",
                "emoji": "\ud83c\udf57",
                "name": "Cinema",
                "category": "fuel_station"
            }
        },
        {
            "transaction_id": "txn054",
            "date": "2024-06-25",
            "amount": 155.77,
            "description": "Salary Deposit",
            "category": "Income",
            "merchant": null
        },
        {
            "transaction_id": "txn055",
            "date": "2024-06-26",
            "amount": -224.32,
            "description": "Dining Out",
            "category": "Dining Out",
            "merchant": {
                "address": {
                    "address": "40 Main Street",
                    "city": "London",
                    "country": "GB",
                    "latitude": 51.4602,
                    "longitude": -0.1066,
                    "postcode": "PT46 9",
                    "region": "Greater London"
                },
                "created": "2010-01-01T00:00:00Z",
                "group_id": "grp_00008zIcpbBOaAr7TTP3sv",
                "id": "merch_789a2e112ef2d46a0b1048",
                "logo": "https://example.com/merchant_logo.jpg",
                "emoji": "\ud83c\udfa5",
                "name": "McDonald's",
                "category": "grocery_store"
            }
        },
        {
            "transaction_id": "txn056",
            "date": "2024-06-27",
            "amount": 194.31,
            "description": "Salary Deposit",
            "category": "Income",
            "merchant": null
        },
        {
            "transaction_id": "txn057",
            "date": "2024-06-28",
            "amount": 236.98,
            "description": "Salary Deposit",
            "category": "Income",
            "merchant": null
        },
        {
            "transaction_id": "txn058",
            "date": "2024-07-01",
            "amount": 120.05,
            "description": "Salary Deposit",
            "category": "Income",
            "merchant": null
        },
        {
            "transaction_id": "txn059",
            "date": "2024-07-03",
            "amount": -160.02,
            "description": "Groceries",
            "category": "Groceries",
            "merchant": {
                "address": {
                    "address": "69 Main Street",
                    "city": "London",
                    "country": "GB",
                    "latitude": 51.456,
                    "longitude": 0.0888,
                    "postcode": "QT59 0",
                    "region": "Greater London"
                },
                "created": "2010-01-01T00:00:00Z",
                "group_id": "grp_00008zIcpbBOaAr7TTP3sv",
                "id": "merch_f488e597906e5b4cb7d961",
                "logo": "https://example.com/merchant_logo.jpg",
                "emoji": "\ud83c\udf54",
                "name": "Cinema",
                "category": "transportation"
            }
        },
        {
            "transaction_id": "txn060",
            "date": "2024-07-06",
            "amount": 72.97,
            "description": "Salary Deposit",
            "category": "Income",
            "merchant": null
        },
        {
            "transaction_id": "txn061",
            "date": "2024-07-10",
            "amount": 279.8,
            "description": "Salary Deposit",
            "category": "Income",
            "merchant": null
        },
        {
            "transaction_id": "txn062",
            "date": "2024-07-11",
            "amount": 127.14,
            "description": "Salary Deposit",
            "category": "Income",
            "merchant": null
        },
        {
            "transaction_id": "txn063",
            "date": "2024-07-14",
            "amount": 16.57,
            "description": "Salary Deposit",
            "category": "Income",
            "merchant": null
        },
        {
            "transaction_id": "txn064",
            "date": "2024-07-16",
            "amount": 198.78,
            "description": "Salary Deposit",
            "category": "Income",
            "merchant": null
        },
        {
            "transaction_id": "txn065",
            "date": "2024-07-18",
            "amount": 32.9,
            "description": "Salary Deposit",
            "category": "Income",
            "merchant": null
        },
        {
            "transaction_id": "txn066",
            "date": "2024-07-23",
            "amount": 25.15,
            "description": "Salary Deposit",
            "category": "Income",
            "merchant": null
        },
        {
            "transaction_id": "txn067",
            "date": "2024-07-28",
            "amount": 136.38,
            "description": "Salary Deposit",
            "category": "Income",
            "merchant": null
        },
        {
            "transaction_id": "txn068",
            "date": "2024-08-01",
            "amount": -4.24,
            "description": "Shopping",
            "category": "Shopping",
            "merchant": {
                "address": {
                    "address": "76 Park Avenue",
                    "city": "London",
                    "country": "GB",
                    "latitude": 51.5314,
                    "longitude": -0.0544,
                    "postcode": "UK80 6",
                    "region": "Greater London"
                },
                "created": "2010-01-01T00:00:00Z",
                "group_id": "grp_00008zIcpbBOaAr7TTP3sv",
                "id": "merch_dca08e7b4d1ea88603f3c7",
                "logo": "https://example.com/merchant_logo.jpg",
                "emoji": "\ud83d\uded2",
                "name": "Nando's",
                "category": "entertainment"
            }
        },
        {
            "transaction_id": "txn069",
            "date": "2024-08-05",
            "amount": -245.45,
            "description": "Transportation",
            "category": "Transportation",
            "merchant": {
                "address": {
                    "address": "30 Park Avenue",
                    "city": "London",
                    "country": "GB",
                    "latitude": 51.504,
                    "longitude": 0.0971,
                    "postcode": "JL53 8",
                    "region": "Greater London"
                },
                "created": "2010-01-01T00:00:00Z",
                "group_id": "grp_00008zIcpbBOaAr7TTP3sv",
                "id": "merch_48ee4ed67bc8187122ab01",
                "logo": "https://example.com/merchant_logo.jpg",
                "emoji": "\ud83c\udf54",
                "name": "Starbucks",
                "category": "fashion_store"
            }
        },
        {
            "transaction_id": "txn070",
            "date": "2024-08-09",
            "amount": -116.11,
            "description": "Groceries",
            "category": "Groceries",
            "merchant": {
                "address": {
                    "address": "88 High Street",
                    "city": "London",
                    "country": "GB",
                    "latitude": 51.5024,
                    "longitude": 0.0656,
                    "postcode": "LD27 3",
                    "region": "Greater London"
                },
                "created": "2010-01-01T00:00:00Z",
                "group_id": "grp_00008zIcpbBOaAr7TTP3sv",
                "id": "merch_fd5be8d4a22efd2a34ea2f",
                "logo": "https://example.com/merchant_logo.jpg",
                "emoji": "\ud83d\udce6",
                "name": "H&M",
                "category": "fuel_station"
            }
        },
        {
            "transaction_id": "txn071",
            "date": "2024-08-14",
            "amount": -224.0,
            "description": "Bills & Utilities",
            "category": "Bills & Utilities",
            "merchant": {
                "address": {
                    "address": "25 Elm Street",
                    "city": "London",
                    "country": "GB",
                    "latitude": 51.5061,
                    "longitude": -0.0973,
                    "postcode": "HY13 5",
                    "region": "Greater London"
                },
                "created": "2010-01-01T00:00:00Z",
                "group_id": "grp_00008zIcpbBOaAr7TTP3sv",
                "id": "merch_867e93d0ac6f29725dc6c4",
                "logo": "https://example.com/merchant_logo.jpg",
                "emoji": "\ud83d\uded2",
                "name": "Uber",
                "category": "transportation"
            }
        },
        {
            "transaction_id": "txn072",
            "date": "2024-08-15",
            "amount": -127.86,
            "description": "Entertainment",
            "category": "Entertainment",
            "merchant": {
                "address": {
                    "address": "8 Station Road",
                    "city": "London",
                    "country": "GB",
                    "latitude": 51.4627,
                    "longitude": -0.0493,
                    "postcode": "JB86 4",
                    "region": "Greater London"
                },
                "created": "2010-01-01T00:00:00Z",
                "group_id": "grp_00008zIcpbBOaAr7TTP3sv",
                "id": "merch_6a12917252a17a7a0100cb",
                "logo": "https://example.com/merchant_logo.jpg",
                "emoji": "\ud83e\udd6a",
                "name": "Cinema",
                "category": "fashion_store"
            }
        },
        {
            "transaction_id": "txn073",
            "date": "2024-08-19",
            "amount": 58.57,
            "description": "Salary Deposit",
            "category": "Income",
            "merchant": null
        },
        {
            "transaction_id": "txn074",
            "date": "2024-08-24",
            "amount": -67.44,
            "description": "Entertainment",
            "category": "Entertainment",
            "merchant": {
                "address": {
                    "address": "8 High Street",
                    "city": "London",
                    "country": "GB",
                    "latitude": 51.4505,
                    "longitude": 0.0637,
                    "postcode": "FR08 1",
                    "region": "Greater London"
                },
                "created": "2010-01-01T00:00:00Z",
                "group_id": "grp_00008zIcpbBOaAr7TTP3sv",
                "id": "merch_ea9349bfe5556dff44bdd7",
                "logo": "https://example.com/merchant_logo.jpg",
                "emoji": "\ud83e\udd6a",
                "name": "BP",
                "category": "grocery_store"
            }
        },
        {
            "transaction_id": "txn075",
            "date": "2024-08-26",
            "amount": 142.51,
            "description": "Salary Deposit",
            "category": "Income",
            "merchant": null
        },
        {
            "transaction_id": "txn076",
            "date": "2024-08-30",
            "amount": 165.98,
            "description": "Salary Deposit",
            "category": "Income",
            "merchant": null
        },
        {
            "transaction_id": "txn077",
            "date": "2024-09-02",
            "amount": 13.55,
            "description": "Salary Deposit",
            "category": "Income",
            "merchant": null
        },
        {
            "transaction_id": "txn078",
            "date": "2024-09-07",
            "amount": 76.81,
            "description": "Salary Deposit",
            "category": "Income",
            "merchant": null
        },
        {
            "transaction_id": "txn079",
            "date": "2024-09-11",
            "amount": 141.53,
            "description": "Salary Deposit",
            "category": "Income",
            "merchant": null
        },
        {
            "transaction_id": "txn080",
            "date": "2024-09-13",
            "amount": -266.3,
            "description": "Groceries",
            "category": "Groceries",
            "merchant": {
                "address": {
                    "address": "31 Elm Street",
                    "city": "London",
                    "country": "GB",
                    "latitude": 51.4977,
                    "longitude": 0.0442,
                    "postcode": "IV98 8",
                    "region": "Greater London"
                },
                "created": "2010-01-01T00:00:00Z",
                "group_id": "grp_00008zIcpbBOaAr7TTP3sv",
                "id": "merch_188eba7498256a43aeff58",
                "logo": "https://example.com/merchant_logo.jpg",
                "emoji": "\ud83d\udc57",
                "name": "Cinema",
                "category": "online_retail"
            }
        },
        {
            "transaction_id": "txn081",
            "date": "2024-09-17",
            "amount": 268.03,
            "description": "Salary Deposit",
            "category": "Income",
            "merchant": null
        },
        {
            "transaction_id": "txn082",
            "date": "2024-09-19",
            "amount": 179.36,
            "description": "Salary Deposit",
            "category": "Income",
            "merchant": null
        },
        {
            "transaction_id": "txn083",
            "date": "2024-09-20",
            "amount": 258.08,
            "description": "Salary Deposit",
            "category": "Income",
            "merchant": null
        },
        {
            "transaction_id": "txn084",
            "date": "2024-09-24",
            "amount": -106.8,
            "description": "Dining Out",
            "category": "Dining Out",
            "merchant": {
                "address": {
                    "address": "22 High Street",
                    "city": "London",
                    "country": "GB",
                    "latitude": 51.466,
                    "longitude": 0.0693,
                    "postcode": "KK20 5",
                    "region": "Greater London"
                },
                "created": "2010-01-01T00:00:00Z",
                "group_id": "grp_00008zIcpbBOaAr7TTP3sv",
                "id": "merch_a0b2d7a6e30c5a6e912c08",
                "logo": "https://example.com/merchant_logo.jpg",
                "emoji": "\ud83c\udf57",
                "name": "BP",
                "category": "entertainment"
            }
        },
        {
            "transaction_id": "txn085",
            "date": "2024-09-25",
            "amount": 79.38,
            "description": "Salary Deposit",
            "category": "Income",
            "merchant": null
        },
        {
            "transaction_id": "txn086",
            "date": "2024-09-27",
            "amount": 54.65,
            "description": "Salary Deposit",
            "category": "Income",
            "merchant": null
        },
        {
            "transaction_id": "txn087",
            "date": "2024-10-02",
            "amount": -269.26,
            "description": "Bills & Utilities",
            "category": "Bills & Utilities",
            "merchant": {
                "address": {
                    "address": "23 Station Road",
                    "city": "London",
                    "country": "GB",
                    "latitude": 51.4893,
                    "longitude": -0.1906,
                    "postcode": "RS27 5",
                    "region": "Greater London"
                },
                "created": "2010-01-01T00:00:00Z",
                "group_id": "grp_00008zIcpbBOaAr7TTP3sv",
                "id": "merch_b166335d8ace0a6fe551ea",
                "logo": "https://example.com/merchant_logo.jpg",
                "emoji": "\u2615\ufe0f",
                "name": "H&M",
                "category": "transportation"
            }
        },
        {
            "transaction_id": "txn088",
            "date": "2024-10-05",
            "amount": -240.36,
            "description": "Entertainment",
            "category": "Entertainment",
            "merchant": {
                "address": {
                    "address": "95 Park Avenue",
                    "city": "London",
                    "country": "GB",
                    "latitude": 51.5232,
                    "longitude": -0.0131,
                    "postcode": "ZD63 3",
                    "region": "Greater London"
                },
                "created": "2010-01-01T00:00:00Z",
                "group_id": "grp_00008zIcpbBOaAr7TTP3sv",
                "id": "merch_1200415e21a3b378fcdb00",
                "logo": "https://example.com/merchant_logo.jpg",
                "emoji": "\ud83d\udc57",
                "name": "Cinema",
                "category": "online_retail"
            }
        },
        {
            "transaction_id": "txn089",
            "date": "2024-10-07",
            "amount": 22.51,
            "description": "Salary Deposit",
            "category": "Income",
            "merchant": null
        },
        {
            "transaction_id": "txn090",
            "date": "2024-10-09",
            "amount": -256.73,
            "description": "Transportation",
            "category": "Transportation",
            "merchant": {
                "address": {
                    "address": "40 Park Avenue",
                    "city": "London",
                    "country": "GB",
                    "latitude": 51.5068,
                    "longitude": 0.0444,
                    "postcode": "AU22 0",
                    "region": "Greater London"
                },
                "created": "2010-01-01T00:00:00Z",
                "group_id": "grp_00008zIcpbBOaAr7TTP3sv",
                "id": "merch_183d5653530c2ca78fa6a3",
                "logo": "https://example.com/merchant_logo.jpg",
                "emoji": "\ud83d\uded2",
                "name": "Cinema",
                "category": "grocery_store"
            }
        },
        {
            "transaction_id": "txn091",
            "date": "2024-10-11",
            "amount": -294.86,
            "description": "Dining Out",
            "category": "Dining Out",
            "merchant": {
                "address": {
                    "address": "20 Station Road",
                    "city": "London",
                    "country": "GB",
                    "latitude": 51.4609,
                    "longitude": -0.0179,
                    "postcode": "KE79 7",
                    "region": "Greater London"
                },
                "created": "2010-01-01T00:00:00Z",
                "group_id": "grp_00008zIcpbBOaAr7TTP3sv",
                "id": "merch_e685e809c98ef19e4541dd",
                "logo": "https://example.com/merchant_logo.jpg",
                "emoji": "\ud83d\ude97",
                "name": "Tesco",
                "category": "entertainment"
            }
        },
        {
            "transaction_id": "txn092",
            "date": "2024-10-13",
            "amount": 61.42,
            "description": "Salary Deposit",
            "category": "Income",
            "merchant": null
        },
        {
            "transaction_id": "txn093",
            "date": "2024-10-16",
            "amount": 149.7,
            "description": "Salary Deposit",
            "category": "Income",
            "merchant": null
        },
        {
            "transaction_id": "txn094",
            "date": "2024-10-18",
            "amount": 0.01,
            "description": "Salary Deposit",
            "category": "Income",
            "merchant": null
        },
        {
            "transaction_id": "txn095",
            "date": "2024-10-19",
            "amount": -133.25,
            "description": "Entertainment",
            "category": "Entertainment",
            "merchant": {
                "address": {
                    "address": "76 Elm Street",
                    "city": "London",
                    "country": "GB",
                    "latitude": 51.4576,
                    "longitude": -0.1883,
                    "postcode": "GR52 6",
                    "region": "Greater London"
                },
                "created": "2010-01-01T00:00:00Z",
                "group_id": "grp_00008zIcpbBOaAr7TTP3sv",
                "id": "merch_b792f01ef89776b0acab92",
                "logo": "https://example.com/merchant_logo.jpg",
                "emoji": "\ud83c\udf57",
                "name": "Uber",
                "category": "coffee_shop"
            }
        },
        {
            "transaction_id": "txn096",
            "date": "2024-10-23",
            "amount": 133.54,
            "description": "Salary Deposit",
            "category": "Income",
            "merchant": null
        },
        {
            "transaction_id": "txn097",
            "date": "2024-10-26",
            "amount": -4.57,
            "description": "Groceries",
            "category": "Groceries",
            "merchant": {
                "address": {
                    "address": "37 Main Street",
                    "city": "London",
                    "country": "GB",
                    "latitude": 51.4626,
                    "longitude": -0.0845,
                    "postcode": "SW51 6",
                    "region": "Greater London"
                },
                "created": "2010-01-01T00:00:00Z",
                "group_id": "grp_00008zIcpbBOaAr7TTP3sv",
                "id": "merch_b5da9f54ce92e00a251f21",
                "logo": "https://example.com/merchant_logo.jpg",
                "emoji": "\ud83c\udf54",
                "name": "Starbucks",
                "category": "transportation"
            }
        },
        {
            "transaction_id": "txn098",
            "date": "2024-10-31",
            "amount": 198.95,
            "description": "Salary Deposit",
            "category": "Income",
            "merchant": null
        },
        {
            "transaction_id": "txn099",
            "date": "2024-11-02",
            "amount": 69.31,
            "description": "Salary Deposit",
            "category": "Income",
            "merchant": null
        },
        {
            "transaction_id": "txn100",
            "date": "2024-11-06",
            "amount": -252.09,
            "description": "Groceries",
            "category": "Groceries",
            "merchant": {
                "address": {
                    "address": "80 High Street",
                    "city": "London",
                    "country": "GB",
                    "latitude": 51.4963,
                    "longitude": -0.2444,
                    "postcode": "ER67 0",
                    "region": "Greater London"
                },
                "created": "2010-01-01T00:00:00Z",
                "group_id": "grp_00008zIcpbBOaAr7TTP3sv",
                "id": "merch_afc019d5054b5c56cdb987",
                "logo": "https://example.com/merchant_logo.jpg",
                "emoji": "\ud83c\udfea",
                "name": "Uber",
                "category": "online_retail"
            }
        },
        {
            "transaction_id": "txn101",
            "date": "2024-11-11",
            "amount": -259.33,
            "description": "Shopping",
            "category": "Shopping",
            "merchant": {
                "address": {
                    "address": "99 Elm Street",
                    "city": "London",
                    "country": "GB",
                    "latitude": 51.5127,
                    "longitude": -0.0872,
                    "postcode": "ND75 1",
                    "region": "Greater London"
                },
                "created": "2010-01-01T00:00:00Z",
                "group_id": "grp_00008zIcpbBOaAr7TTP3sv",
                "id": "merch_71e169714a6d017b940d04",
                "logo": "https://example.com/merchant_logo.jpg",
                "emoji": "\ud83c\udfea",
                "name": "Amazon",
                "category": "online_retail"
            }
        },
        {
            "transaction_id": "txn102",
            "date": "2024-11-13",
            "amount": -250.59,
            "description": "Food & Drink",
            "category": "Food & Drink",
            "merchant": {
                "address": {
                    "address": "88 Elm Street",
                    "city": "London",
                    "country": "GB",
                    "latitude": 51.4896,
                    "longitude": -0.0969,
                    "postcode": "ON12 4",
                    "region": "Greater London"
                },
                "created": "2010-01-01T00:00:00Z",
                "group_id": "grp_00008zIcpbBOaAr7TTP3sv",
                "id": "merch_7654cfe794818a05a7c9cc",
                "logo": "https://example.com/merchant_logo.jpg",
                "emoji": "\ud83c\udf54",
                "name": "BP",
                "category": "transportation"
            }
        },
        {
            "transaction_id": "txn103",
            "date": "2024-11-14",
            "amount": -135.69,
            "description": "Groceries",
            "category": "Groceries",
            "merchant": {
                "address": {
                    "address": "18 High Street",
                    "city": "London",
                    "country": "GB",
                    "latitude": 51.461,
                    "longitude": 0.0032,
                    "postcode": "UQ00 4",
                    "region": "Greater London"
                },
                "created": "2010-01-01T00:00:00Z",
                "group_id": "grp_00008zIcpbBOaAr7TTP3sv",
                "id": "merch_be104d70befcb98a683ceb",
                "logo": "https://example.com/merchant_logo.jpg",
                "emoji": "\ud83d\udce6",
                "name": "Subway",
                "category": "entertainment"
            }
        },
        {
            "transaction_id": "txn104",
            "date": "2024-11-17",
            "amount": -253.17,
            "description": "Entertainment",
            "category": "Entertainment",
            "merchant": {
                "address": {
                    "address": "12 High Street",
                    "city": "London",
                    "country": "GB",
                    "latitude": 51.4566,
                    "longitude": 0.0158,
                    "postcode": "RC81 8",
                    "region": "Greater London"
                },
                "created": "2010-01-01T00:00:00Z",
                "group_id": "grp_00008zIcpbBOaAr7TTP3sv",
                "id": "merch_b2976127f4068ef85068f1",
                "logo": "https://example.com/merchant_logo.jpg",
                "emoji": "\ud83c\udf54",
                "name": "BP",
                "category": "grocery_store"
            }
        },
        {
            "transaction_id": "txn105",
            "date": "2024-11-22",
            "amount": 267.4,
            "description": "Salary Deposit",
            "category": "Income",
            "merchant": null
        },
        {
            "transaction_id": "txn106",
            "date": "2024-11-25",
            "amount": 142.02,
            "description": "Salary Deposit",
            "category": "Income",
            "merchant": null
        },
        {
            "transaction_id": "txn107",
            "date": "2024-11-27",
            "amount": -279.52,
            "description": "Entertainment",
            "category": "Entertainment",
            "merchant": {
                "address": {
                    "address": "63 High Street",
                    "city": "London",
                    "country": "GB",
                    "latitude": 51.4658,
                    "longitude": 0.0348,
                    "postcode": "BL73 7",
                    "region": "Greater London"
                },
                "created": "2010-01-01T00:00:00Z",
                "group_id": "grp_00008zIcpbBOaAr7TTP3sv",
                "id": "merch_489c7f712a80c731f77fa8",
                "logo": "https://example.com/merchant_logo.jpg",
                "emoji": "\ud83e\udd6a",
                "name": "Starbucks",
                "category": "fashion_store"
            }
        },
        {
            "transaction_id": "txn108",
            "date": "2024-12-02",
            "amount": -43.21,
            "description": "Transportation",
            "category": "Transportation",
            "merchant": {
                "address": {
                    "address": "83 High Street",
                    "city": "London",
                    "country": "GB",
                    "latitude": 51.4538,
                    "longitude": -0.2005,
                    "postcode": "UU57 2",
                    "region": "Greater London"
                },
                "created": "2010-01-01T00:00:00Z",
                "group_id": "grp_00008zIcpbBOaAr7TTP3sv",
                "id": "merch_0ed243e92befa4cdba858f",
                "logo": "https://example.com/merchant_logo.jpg",
                "emoji": "\ud83c\udf57",
                "name": "Cinema",
                "category": "fashion_store"
            }
        },
        {
            "transaction_id": "txn109",
            "date": "2024-12-04",
            "amount": -122.25,
            "description": "Dining Out",
            "category": "Dining Out",
            "merchant": {
                "address": {
                    "address": "15 Main Street",
                    "city": "London",
                    "country": "GB",
                    "latitude": 51.5181,
                    "longitude": -0.093,
                    "postcode": "ZU26 3",
                    "region": "Greater London"
                },
                "created": "2010-01-01T00:00:00Z",
                "group_id": "grp_00008zIcpbBOaAr7TTP3sv",
                "id": "merch_4b6a62a5b3df16ff86890e",
                "logo": "https://example.com/merchant_logo.jpg",
                "emoji": "\ud83c\udf57",
                "name": "Nando's",
                "category": "coffee_shop"
            }
        },
        {
            "transaction_id": "txn110",
            "date": "2024-12-05",
            "amount": 102.98,
            "description": "Salary Deposit",
            "category": "Income",
            "merchant": null
        },
        {
            "transaction_id": "txn111",
            "date": "2024-12-09",
            "amount": -150.12,
            "description": "Bills & Utilities",
            "category": "Bills & Utilities",
            "merchant": {
                "address": {
                    "address": "63 High Street",
                    "city": "London",
                    "country": "GB",
                    "latitude": 51.465,
                    "longitude": -0.0744,
                    "postcode": "IB81 5",
                    "region": "Greater London"
                },
                "created": "2010-01-01T00:00:00Z",
                "group_id": "grp_00008zIcpbBOaAr7TTP3sv",
                "id": "merch_781d07277562a351bd0482",
                "logo": "https://example.com/merchant_logo.jpg",
                "emoji": "\u26fd",
                "name": "Amazon",
                "category": "transportation"
            }
        },
        {
            "transaction_id": "txn112",
            "date": "2024-12-11",
            "amount": 83.4,
            "description": "Salary Deposit",
            "category": "Income",
            "merchant": null
        },
        {
            "transaction_id": "txn113",
            "date": "2024-12-16",
            "amount": 236.71,
            "description": "Salary Deposit",
            "category": "Income",
            "merchant": null
        },
        {
            "transaction_id": "txn114",
            "date": "2024-12-19",
            "amount": 215.94,
            "description": "Salary Deposit",
            "category": "Income",
            "merchant": null
        },
        {
            "transaction_id": "txn115",
            "date": "2024-12-22",
            "amount": -278.87,
            "description": "Bills & Utilities",
            "category": "Bills & Utilities",
            "merchant": {
                "address": {
                    "address": "98 Park Avenue",
                    "city": "London",
                    "country": "GB",
                    "latitude": 51.47,
                    "longitude": -0.2366,
                    "postcode": "UG46 4",
                    "region": "Greater London"
                },
                "created": "2010-01-01T00:00:00Z",
                "group_id": "grp_00008zIcpbBOaAr7TTP3sv",
                "id": "merch_ecd942a1d8c0af805c5025",
                "logo": "https://example.com/merchant_logo.jpg",
                "emoji": "\ud83e\udd6a",
                "name": "Nando's",
                "category": "entertainment"
            }
        },
        {
            "transaction_id": "txn116",
            "date": "2024-12-24",
            "amount": -228.19,
            "description": "Groceries",
            "category": "Groceries",
            "merchant": {
                "address": {
                    "address": "81 Elm Street",
                    "city": "London",
                    "country": "GB",
                    "latitude": 51.5061,
                    "longitude": -0.0107,
                    "postcode": "QK44 2",
                    "region": "Greater London"
                },
                "created": "2010-01-01T00:00:00Z",
                "group_id": "grp_00008zIcpbBOaAr7TTP3sv",
                "id": "merch_734e653c67aa7e412bdd23",
                "logo": "https://example.com/merchant_logo.jpg",
                "emoji": "\ud83d\uded2",
                "name": "Nando's",
                "category": "fashion_store"
            }
        },
        {
            "transaction_id": "txn117",
            "date": "2024-12-26",
            "amount": 71.19,
            "description": "Salary Deposit",
            "category": "Income",
            "merchant": null
        },
        {
            "transaction_id": "txn118",
            "date": "2024-12-27",
            "amount": 207.84,
            "description": "Salary Deposit",
            "category": "Income",
            "merchant": null
        },
        {
            "transaction_id": "txn119",
            "date": "2025-01-01",
            "amount": -46.37,
            "description": "Shopping",
            "category": "Shopping",
            "merchant": {
                "address": {
                    "address": "32 Elm Street",
                    "city": "London",
                    "country": "GB",
                    "latitude": 51.5018,
                    "longitude": -0.0164,
                    "postcode": "BE75 9",
                    "region": "Greater London"
                },
                "created": "2010-01-01T00:00:00Z",
                "group_id": "grp_00008zIcpbBOaAr7TTP3sv",
                "id": "merch_273f7ec3fb1bc89d86661f",
                "logo": "https://example.com/merchant_logo.jpg",
                "emoji": "\ud83d\udc57",
                "name": "Subway",
                "category": "online_retail"
            }
        },
        {
            "transaction_id": "txn120",
            "date": "2025-01-04",
            "amount": 205.05,
            "description": "Salary Deposit",
            "category": "Income",
            "merchant": null
        },
        {
            "transaction_id": "txn121",
            "date": "2025-01-08",
            "amount": -76.8,
            "description": "Dining Out",
            "category": "Dining Out",
            "merchant": {
                "address": {
                    "address": "8 High Street",
                    "city": "London",
                    "country": "GB",
                    "latitude": 51.5189,
                    "longitude": -0.2483,
                    "postcode": "TO93 3",
                    "region": "Greater London"
                },
                "created": "2010-01-01T00:00:00Z",
                "group_id": "grp_00008zIcpbBOaAr7TTP3sv",
                "id": "merch_940dd7b8d2fb256f25cc1f",
                "logo": "https://example.com/merchant_logo.jpg",
                "emoji": "\ud83c\udfa5",
                "name": "Subway",
                "category": "entertainment"
            }
        },
        {
            "transaction_id": "txn122",
            "date": "2025-01-09",
            "amount": 67.78,
            "description": "Salary Deposit",
            "category": "Income",
            "merchant": null
        },
        {
            "transaction_id": "txn123",
            "date": "2025-01-12",
            "amount": -118.1,
            "description": "Dining Out",
            "category": "Dining Out",
            "merchant": {
                "address": {
                    "address": "82 Main Street",
                    "city": "London",
                    "country": "GB",
                    "latitude": 51.5228,
                    "longitude": -0.1348,
                    "postcode": "BE14 9",
                    "region": "Greater London"
                },
                "created": "2010-01-01T00:00:00Z",
                "group_id": "grp_00008zIcpbBOaAr7TTP3sv",
                "id": "merch_35c512231902c1f01faafd",
                "logo": "https://example.com/merchant_logo.jpg",
                "emoji": "\ud83c\udf54",
                "name": "Amazon",
                "category": "entertainment"
            }
        },
        {
            "transaction_id": "txn124",
            "date": "2025-01-16",
            "amount": -12.65,
            "description": "Groceries",
            "category": "Groceries",
            "merchant": {
                "address": {
                    "address": "41 Main Street",
                    "city": "London",
                    "country": "GB",
                    "latitude": 51.5163,
                    "longitude": -0.2256,
                    "postcode": "FA61 7",
                    "region": "Greater London"
                },
                "created": "2010-01-01T00:00:00Z",
                "group_id": "grp_00008zIcpbBOaAr7TTP3sv",
                "id": "merch_059b28e0df4fea66a4fe6b",
                "logo": "https://example.com/merchant_logo.jpg",
                "emoji": "\ud83d\ude97",
                "name": "Uber",
                "category": "fashion_store"
            }
        },
        {
            "transaction_id": "txn125",
            "date": "2025-01-20",
            "amount": 193.78,
            "description": "Salary Deposit",
            "category": "Income",
            "merchant": null
        },
        {
            "transaction_id": "txn126",
            "date": "2025-01-24",
            "amount": -225.73,
            "description": "Transportation",
            "category": "Transportation",
            "merchant": {
                "address": {
                    "address": "88 High Street",
                    "city": "London",
                    "country": "GB",
                    "latitude": 51.5494,
                    "longitude": -0.2434,
                    "postcode": "EW49 8",
                    "region": "Greater London"
                },
                "created": "2010-01-01T00:00:00Z",
                "group_id": "grp_00008zIcpbBOaAr7TTP3sv",
                "id": "merch_36219b8f54165ee6946522",
                "logo": "https://example.com/merchant_logo.jpg",
                "emoji": "\ud83c\udfea",
                "name": "Uber",
                "category": "coffee_shop"
            }
        },
        {
            "transaction_id": "txn127",
            "date": "2025-01-25",
            "amount": 123.87,
            "description": "Salary Deposit",
            "category": "Income",
            "merchant": null
        },
        {
            "transaction_id": "txn128",
            "date": "2025-01-28",
            "amount": -133.76,
            "description": "Shopping",
            "category": "Shopping",
            "merchant": {
                "address": {
                    "address": "23 Station Road",
                    "city": "London",
                    "country": "GB",
                    "latitude": 51.5287,
                    "longitude": -0.0158,
                    "postcode": "ZN76 8",
                    "region": "Greater London"
                },
                "created": "2010-01-01T00:00:00Z",
                "group_id": "grp_00008zIcpbBOaAr7TTP3sv",
                "id": "merch_76550a0aab8228a551555c",
                "logo": "https://example.com/merchant_logo.jpg",
                "emoji": "\ud83d\ude97",
                "name": "Subway",
                "category": "entertainment"
            }
        },
        {
            "transaction_id": "txn129",
            "date": "2025-01-31",
            "amount": -49.36,
            "description": "Shopping",
            "category": "Shopping",
            "merchant": {
                "address": {
                    "address": "72 Main Street",
                    "city": "London",
                    "country": "GB",
                    "latitude": 51.5496,
                    "longitude": 0.0092,
                    "postcode": "GC08 7",
                    "region": "Greater London"
                },
                "created": "2010-01-01T00:00:00Z",
                "group_id": "grp_00008zIcpbBOaAr7TTP3sv",
                "id": "merch_aed1a75069b83e57b90734",
                "logo": "https://example.com/merchant_logo.jpg",
                "emoji": "\ud83c\udfea",
                "name": "BP",
                "category": "fashion_store"
            }
        },
        {
            "transaction_id": "txn130",
            "date": "2025-02-02",
            "amount": -78.86,
            "description": "Transportation",
            "category": "Transportation",
            "merchant": {
                "address": {
                    "address": "26 Station Road",
                    "city": "London",
                    "country": "GB",
                    "latitude": 51.4825,
                    "longitude": -0.035,
                    "postcode": "XJ76 7",
                    "region": "Greater London"
                },
                "created": "2010-01-01T00:00:00Z",
                "group_id": "grp_00008zIcpbBOaAr7TTP3sv",
                "id": "merch_a464eb2bc379d4c5553282",
                "logo": "https://example.com/merchant_logo.jpg",
                "emoji": "\ud83c\udfea",
                "name": "BP",
                "category": "entertainment"
            }
        },
        {
            "transaction_id": "txn131",
            "date": "2025-02-06",
            "amount": 76.9,
            "description": "Salary Deposit",
            "category": "Income",
            "merchant": null
        },
        {
            "transaction_id": "txn132",
            "date": "2025-02-09",
            "amount": 58.09,
            "description": "Salary Deposit",
            "category": "Income",
            "merchant": null
        },
        {
            "transaction_id": "txn133",
            "date": "2025-02-11",
            "amount": -110.45,
            "description": "Bills & Utilities",
            "category": "Bills & Utilities",
            "merchant": {
                "address": {
                    "address": "52 Main Street",
                    "city": "London",
                    "country": "GB",
                    "latitude": 51.5433,
                    "longitude": 0.0668,
                    "postcode": "LS20 4",
                    "region": "Greater London"
                },
                "created": "2010-01-01T00:00:00Z",
                "group_id": "grp_00008zIcpbBOaAr7TTP3sv",
                "id": "merch_e900b3b832ccf85b2a280d",
                "logo": "https://example.com/merchant_logo.jpg",
                "emoji": "\ud83d\udc57",
                "name": "Nando's",
                "category": "coffee_shop"
            }
        },
        {
            "transaction_id": "txn134",
            "date": "2025-02-13",
            "amount": 149.34,
            "description": "Salary Deposit",
            "category": "Income",
            "merchant": null
        },
        {
            "transaction_id": "txn135",
            "date": "2025-02-17",
            "amount": -99.62,
            "description": "Bills & Utilities",
            "category": "Bills & Utilities",
            "merchant": {
                "address": {
                    "address": "25 Station Road",
                    "city": "London",
                    "country": "GB",
                    "latitude": 51.5127,
                    "longitude": -0.0583,
                    "postcode": "PG12 2",
                    "region": "Greater London"
                },
                "created": "2010-01-01T00:00:00Z",
                "group_id": "grp_00008zIcpbBOaAr7TTP3sv",
                "id": "merch_2c21823086d68552b4834b",
                "logo": "https://example.com/merchant_logo.jpg",
                "emoji": "\ud83d\ude97",
                "name": "Tesco",
                "category": "fuel_station"
            }
        },
        {
            "transaction_id": "txn136",
            "date": "2025-02-20",
            "amount": -3.75,
            "description": "Entertainment",
            "category": "Entertainment",
            "merchant": {
                "address": {
                    "address": "60 Elm Street",
                    "city": "London",
                    "country": "GB",
                    "latitude": 51.5109,
                    "longitude": 0.0351,
                    "postcode": "TJ21 4",
                    "region": "Greater London"
                },
                "created": "2010-01-01T00:00:00Z",
                "group_id": "grp_00008zIcpbBOaAr7TTP3sv",
                "id": "merch_e1fa2aada0cbc9222d8104",
                "logo": "https://example.com/merchant_logo.jpg",
                "emoji": "\ud83c\udf54",
                "name": "Cinema",
                "category": "restaurant"
            }
        },
        {
            "transaction_id": "txn137",
            "date": "2025-02-21",
            "amount": -220.71,
            "description": "Bills & Utilities",
            "category": "Bills & Utilities",
            "merchant": {
                "address": {
                    "address": "9 High Street",
                    "city": "London",
                    "country": "GB",
                    "latitude": 51.4823,
                    "longitude": 0.0222,
                    "postcode": "DA76 3",
                    "region": "Greater London"
                },
                "created": "2010-01-01T00:00:00Z",
                "group_id": "grp_00008zIcpbBOaAr7TTP3sv",
                "id": "merch_9db3c016ed74250a589c53",
                "logo": "https://example.com/merchant_logo.jpg",
                "emoji": "\ud83c\udfea",
                "name": "Nando's",
                "category": "fuel_station"
            }
        },
        {
            "transaction_id": "txn138",
            "date": "2025-02-23",
            "amount": 209.13,
            "description": "Salary Deposit",
            "category": "Income",
            "merchant": null
        },
        {
            "transaction_id": "txn139",
            "date": "2025-02-25",
            "amount": -218.7,
            "description": "Shopping",
            "category": "Shopping",
            "merchant": {
                "address": {
                    "address": "23 Main Street",
                    "city": "London",
                    "country": "GB",
                    "latitude": 51.5266,
                    "longitude": -0.1954,
                    "postcode": "EJ95 0",
                    "region": "Greater London"
                },
                "created": "2010-01-01T00:00:00Z",
                "group_id": "grp_00008zIcpbBOaAr7TTP3sv",
                "id": "merch_4aa669d4dedc11571ef622",
                "logo": "https://example.com/merchant_logo.jpg",
                "emoji": "\ud83d\udce6",
                "name": "Amazon",
                "category": "online_retail"
            }
        },
        {
            "transaction_id": "txn140",
            "date": "2025-02-27",
            "amount": 198.21,
            "description": "Salary Deposit",
            "category": "Income",
            "merchant": null
        },
        {
            "transaction_id": "txn141",
            "date": "2025-02-28",
            "amount": 170.89,
            "description": "Salary Deposit",
            "category": "Income",
            "merchant": null
        },
        {
            "transaction_id": "txn142",
            "date": "2025-03-04",
            "amount": -233.35,
            "description": "Transportation",
            "category": "Transportation",
            "merchant": {
                "address": {
                    "address": "65 Main Street",
                    "city": "London",
                    "country": "GB",
                    "latitude": 51.5101,
                    "longitude": 0.0698,
                    "postcode": "OE12 5",
                    "region": "Greater London"
                },
                "created": "2010-01-01T00:00:00Z",
                "group_id": "grp_00008zIcpbBOaAr7TTP3sv",
                "id": "merch_a43de721f4c952dda5fbf9",
                "logo": "https://example.com/merchant_logo.jpg",
                "emoji": "\ud83c\udf57",
                "name": "Cinema",
                "category": "fashion_store"
            }
        },
        {
            "transaction_id": "txn143",
            "date": "2025-03-06",
            "amount": -165.85,
            "description": "Entertainment",
            "category": "Entertainment",
            "merchant": {
                "address": {
                    "address": "93 Park Avenue",
                    "city": "London",
                    "country": "GB",
                    "latitude": 51.4681,
                    "longitude": -0.1723,
                    "postcode": "DT93 5",
                    "region": "Greater London"
                },
                "created": "2010-01-01T00:00:00Z",
                "group_id": "grp_00008zIcpbBOaAr7TTP3sv",
                "id": "merch_da2c1303dcb7be078f0565",
                "logo": "https://example.com/merchant_logo.jpg",
                "emoji": "\ud83e\udd6a",
                "name": "McDonald's",
                "category": "fuel_station"
            }
        },
        {
            "transaction_id": "txn144",
            "date": "2025-03-11",
            "amount": 268.91,
            "description": "Salary Deposit",
            "category": "Income",
            "merchant": null
        },
        {
            "transaction_id": "txn145",
            "date": "2025-03-14",
            "amount": -253.39,
            "description": "Groceries",
            "category": "Groceries",
            "merchant": {
                "address": {
                    "address": "17 Park Avenue",
                    "city": "London",
                    "country": "GB",
                    "latitude": 51.4643,
                    "longitude": -0.0157,
                    "postcode": "WI23 9",
                    "region": "Greater London"
                },
                "created": "2010-01-01T00:00:00Z",
                "group_id": "grp_00008zIcpbBOaAr7TTP3sv",
                "id": "merch_8aa640b3dd0f6f3a54c530",
                "logo": "https://example.com/merchant_logo.jpg",
                "emoji": "\ud83d\udc57",
                "name": "BP",
                "category": "restaurant"
            }
        },
        {
            "transaction_id": "txn146",
            "date": "2025-03-18",
            "amount": -299.73,
            "description": "Dining Out",
            "category": "Dining Out",
            "merchant": {
                "address": {
                    "address": "90 Station Road",
                    "city": "London",
                    "country": "GB",
                    "latitude": 51.514,
                    "longitude": -0.1735,
                    "postcode": "GR44 2",
                    "region": "Greater London"
                },
                "created": "2010-01-01T00:00:00Z",
                "group_id": "grp_00008zIcpbBOaAr7TTP3sv",
                "id": "merch_70f7c27f60986a4c6f6649",
                "logo": "https://example.com/merchant_logo.jpg",
                "emoji": "\u26fd",
                "name": "McDonald's",
                "category": "entertainment"
            }
        },
        {
            "transaction_id": "txn147",
            "date": "2025-03-19",
            "amount": 195.95,
            "description": "Salary Deposit",
            "category": "Income",
            "merchant": null
        },
        {
            "transaction_id": "txn148",
            "date": "2025-03-24",
            "amount": -19.64,
            "description": "Food & Drink",
            "category": "Food & Drink",
            "merchant": {
                "address": {
                    "address": "31 Main Street",
                    "city": "London",
                    "country": "GB",
                    "latitude": 51.4826,
                    "longitude": 0.0115,
                    "postcode": "PY77 9",
                    "region": "Greater London"
                },
                "created": "2010-01-01T00:00:00Z",
                "group_id": "grp_00008zIcpbBOaAr7TTP3sv",
                "id": "merch_100195fa05bd96f09c3436",
                "logo": "https://example.com/merchant_logo.jpg",
                "emoji": "\ud83c\udfea",
                "name": "McDonald's",
                "category": "fashion_store"
            }
        },
        {
            "transaction_id": "txn149",
            "date": "2025-03-26",
            "amount": 171.18,
            "description": "Salary Deposit",
            "category": "Income",
            "merchant": null
        },
        {
            "transaction_id": "txn150",
            "date": "2025-03-27",
            "amount": -45.05,
            "description": "Transportation",
            "category": "Transportation",
            "merchant": {
                "address": {
                    "address": "73 High Street",
                    "city": "London",
                    "country": "GB",
                    "latitude": 51.4506,
                    "longitude": -0.0183,
                    "postcode": "GQ24 8",
                    "region": "Greater London"
                },
                "created": "2010-01-01T00:00:00Z",
                "group_id": "grp_00008zIcpbBOaAr7TTP3sv",
                "id": "merch_e3ba40e00b3aff38c64e08",
                "logo": "https://example.com/merchant_logo.jpg",
                "emoji": "\ud83d\uded2",
                "name": "Nando's",
                "category": "restaurant"
            }
        },
        {
            "transaction_id": "txn151",
            "date": "2025-03-30",
            "amount": -99.87,
            "description": "Bills & Utilities",
            "category": "Bills & Utilities",
            "merchant": {
                "address": {
                    "address": "91 Park Avenue",
                    "city": "London",
                    "country": "GB",
                    "latitude": 51.4878,
                    "longitude": 0.0517,
                    "postcode": "WT80 6",
                    "region": "Greater London"
                },
                "created": "2010-01-01T00:00:00Z",
                "group_id": "grp_00008zIcpbBOaAr7TTP3sv",
                "id": "merch_e984c84a4a99beaa0219fa",
                "logo": "https://example.com/merchant_logo.jpg",
                "emoji": "\u2615\ufe0f",
                "name": "Subway",
                "category": "grocery_store"
            }
        },
        {
            "transaction_id": "txn152",
            "date": "2025-03-31",
            "amount": -99.8,
            "description": "Groceries",
            "category": "Groceries",
            "merchant": {
                "address": {
                    "address": "49 Park Avenue",
                    "city": "London",
                    "country": "GB",
                    "latitude": 51.5239,
                    "longitude": -0.0954,
                    "postcode": "VK05 5",
                    "region": "Greater London"
                },
                "created": "2010-01-01T00:00:00Z",
                "group_id": "grp_00008zIcpbBOaAr7TTP3sv",
                "id": "merch_b73d0601f5b1ae0486c15e",
                "logo": "https://example.com/merchant_logo.jpg",
                "emoji": "\u2615\ufe0f",
                "name": "Subway",
                "category": "fuel_station"
            }
        },
        {
            "transaction_id": "txn153",
            "date": "2025-04-02",
            "amount": -108.37,
            "description": "Food & Drink",
            "category": "Food & Drink",
            "merchant": {
                "address": {
                    "address": "3 Station Road",
                    "city": "London",
                    "country": "GB",
                    "latitude": 51.4648,
                    "longitude": 0.0915,
                    "postcode": "BP24 2",
                    "region": "Greater London"
                },
                "created": "2010-01-01T00:00:00Z",
                "group_id": "grp_00008zIcpbBOaAr7TTP3sv",
                "id": "merch_4d70b633de67ec4d433f12",
                "logo": "https://example.com/merchant_logo.jpg",
                "emoji": "\u2615\ufe0f",
                "name": "Starbucks",
                "category": "restaurant"
            }
        },
        {
            "transaction_id": "txn154",
            "date": "2025-04-06",
            "amount": -280.49,
            "description": "Bills & Utilities",
            "category": "Bills & Utilities",
            "merchant": {
                "address": {
                    "address": "80 High Street",
                    "city": "London",
                    "country": "GB",
                    "latitude": 51.4972,
                    "longitude": -0.1778,
                    "postcode": "RX57 2",
                    "region": "Greater London"
                },
                "created": "2010-01-01T00:00:00Z",
                "group_id": "grp_00008zIcpbBOaAr7TTP3sv",
                "id": "merch_cf109b42864e69777b0ca6",
                "logo": "https://example.com/merchant_logo.jpg",
                "emoji": "\ud83d\udce6",
                "name": "Cinema",
                "category": "entertainment"
            }
        },
        {
            "transaction_id": "txn155",
            "date": "2025-04-09",
            "amount": 214.61,
            "description": "Salary Deposit",
            "category": "Income",
            "merchant": null
        },
        {
            "transaction_id": "txn156",
            "date": "2025-04-11",
            "amount": -119.94,
            "description": "Groceries",
            "category": "Groceries",
            "merchant": {
                "address": {
                    "address": "43 High Street",
                    "city": "London",
                    "country": "GB",
                    "latitude": 51.5235,
                    "longitude": -0.1278,
                    "postcode": "CE73 1",
                    "region": "Greater London"
                },
                "created": "2010-01-01T00:00:00Z",
                "group_id": "grp_00008zIcpbBOaAr7TTP3sv",
                "id": "merch_b0cac18edea42792c1892e",
                "logo": "https://example.com/merchant_logo.jpg",
                "emoji": "\ud83d\ude97",
                "name": "McDonald's",
                "category": "coffee_shop"
            }
        },
        {
            "transaction_id": "txn157",
            "date": "2025-04-15",
            "amount": 60.31,
            "description": "Salary Deposit",
            "category": "Income",
            "merchant": null
        },
        {
            "transaction_id": "txn158",
            "date": "2025-04-20",
            "amount": 206.47,
            "description": "Salary Deposit",
            "category": "Income",
            "merchant": null
        },
        {
            "transaction_id": "txn159",
            "date": "2025-04-22",
            "amount": 239.08,
            "description": "Salary Deposit",
            "category": "Income",
            "merchant": null
        },
        {
            "transaction_id": "txn160",
            "date": "2025-04-23",
            "amount": -174.13,
            "description": "Dining Out",
            "category": "Dining Out",
            "merchant": {
                "address": {
                    "address": "85 Park Avenue",
                    "city": "London",
                    "country": "GB",
                    "latitude": 51.5092,
                    "longitude": -0.0162,
                    "postcode": "YI39 6",
                    "region": "Greater London"
                },
                "created": "2010-01-01T00:00:00Z",
                "group_id": "grp_00008zIcpbBOaAr7TTP3sv",
                "id": "merch_45c18c306a76412d6cf2c3",
                "logo": "https://example.com/merchant_logo.jpg",
                "emoji": "\ud83c\udf57",
                "name": "Amazon",
                "category": "restaurant"
            }
        },
        {
            "transaction_id": "txn161",
            "date": "2025-04-24",
            "amount": -92.89,
            "description": "Food & Drink",
            "category": "Food & Drink",
            "merchant": {
                "address": {
                    "address": "55 Station Road",
                    "city": "London",
                    "country": "GB",
                    "latitude": 51.4893,
                    "longitude": -0.0931,
                    "postcode": "PQ31 9",
                    "region": "Greater London"
                },
                "created": "2010-01-01T00:00:00Z",
                "group_id": "grp_00008zIcpbBOaAr7TTP3sv",
                "id": "merch_e10b99e8ff6953af250d7b",
                "logo": "https://example.com/merchant_logo.jpg",
                "emoji": "\ud83d\uded2",
                "name": "Tesco",
                "category": "coffee_shop"
            }
        },
        {
            "transaction_id": "txn162",
            "date": "2025-04-29",
            "amount": -53.31,
            "description": "Groceries",
            "category": "Groceries",
            "merchant": {
                "address": {
                    "address": "5 Main Street",
                    "city": "London",
                    "country": "GB",
                    "latitude": 51.4546,
                    "longitude": -0.1136,
                    "postcode": "KT80 1",
                    "region": "Greater London"
                },
                "created": "2010-01-01T00:00:00Z",
                "group_id": "grp_00008zIcpbBOaAr7TTP3sv",
                "id": "merch_13f74508ec55e34a452281",
                "logo": "https://example.com/merchant_logo.jpg",
                "emoji": "\u26fd",
                "name": "Cinema",
                "category": "online_retail"
            }
        },
        {
            "transaction_id": "txn163",
            "date": "2025-05-01",
            "amount": 238.06,
            "description": "Salary Deposit",
            "category": "Income",
            "merchant": null
        },
        {
            "transaction_id": "txn164",
            "date": "2025-05-04",
            "amount": 222.7,
            "description": "Salary Deposit",
            "category": "Income",
            "merchant": null
        },
        {
            "transaction_id": "txn165",
            "date": "2025-05-09",
            "amount": -15.15,
            "description": "Bills & Utilities",
            "category": "Bills & Utilities",
            "merchant": {
                "address": {
                    "address": "1 Station Road",
                    "city": "London",
                    "country": "GB",
                    "latitude": 51.4649,
                    "longitude": -0.0417,
                    "postcode": "SE74 1",
                    "region": "Greater London"
                },
                "created": "2010-01-01T00:00:00Z",
                "group_id": "grp_00008zIcpbBOaAr7TTP3sv",
                "id": "merch_fcad7691d34b2bcd88033b",
                "logo": "https://example.com/merchant_logo.jpg",
                "emoji": "\ud83e\udd6a",
                "name": "Nando's",
                "category": "transportation"
            }
        },
        {
            "transaction_id": "txn166",
            "date": "2025-05-10",
            "amount": 92.98,
            "description": "Salary Deposit",
            "category": "Income",
            "merchant": null
        },
        {
            "transaction_id": "txn167",
            "date": "2025-05-14",
            "amount": -67.31,
            "description": "Shopping",
            "category": "Shopping",
            "merchant": {
                "address": {
                    "address": "26 Station Road",
                    "city": "London",
                    "country": "GB",
                    "latitude": 51.4787,
                    "longitude": 0.0323,
                    "postcode": "II09 7",
                    "region": "Greater London"
                },
                "created": "2010-01-01T00:00:00Z",
                "group_id": "grp_00008zIcpbBOaAr7TTP3sv",
                "id": "merch_f6c3f59001e7e03e590fbb",
                "logo": "https://example.com/merchant_logo.jpg",
                "emoji": "\ud83d\udc57",
                "name": "Tesco",
                "category": "entertainment"
            }
        },
        {
            "transaction_id": "txn168",
            "date": "2025-05-17",
            "amount": -257.48,
            "description": "Shopping",
            "category": "Shopping",
            "merchant": {
                "address": {
                    "address": "10 High Street",
                    "city": "London",
                    "country": "GB",
                    "latitude": 51.5321,
                    "longitude": -0.25,
                    "postcode": "RW71 0",
                    "region": "Greater London"
                },
                "created": "2010-01-01T00:00:00Z",
                "group_id": "grp_00008zIcpbBOaAr7TTP3sv",
                "id": "merch_11156546161fe6a78add70",
                "logo": "https://example.com/merchant_logo.jpg",
                "emoji": "\u2615\ufe0f",
                "name": "Uber",
                "category": "coffee_shop"
            }
        },
        {
            "transaction_id": "txn169",
            "date": "2025-05-19",
            "amount": 12.36,
            "description": "Salary Deposit",
            "category": "Income",
            "merchant": null
        },
        {
            "transaction_id": "txn170",
            "date": "2025-05-20",
            "amount": 283.43,
            "description": "Salary Deposit",
            "category": "Income",
            "merchant": null
        },
        {
            "transaction_id": "txn171",
            "date": "2025-05-23",
            "amount": -217.75,
            "description": "Shopping",
            "category": "Shopping",
            "merchant": {
                "address": {
                    "address": "68 High Street",
                    "city": "London",
                    "country": "GB",
                    "latitude": 51.5018,
                    "longitude": -0.0744,
                    "postcode": "XS42 5",
                    "region": "Greater London"
                },
                "created": "2010-01-01T00:00:00Z",
                "group_id": "grp_00008zIcpbBOaAr7TTP3sv",
                "id": "merch_e6197fc2982852dbaf78ac",
                "logo": "https://example.com/merchant_logo.jpg",
                "emoji": "\ud83d\udc57",
                "name": "Tesco",
                "category": "fashion_store"
            }
        },
        {
            "transaction_id": "txn172",
            "date": "2025-05-25",
            "amount": -24.33,
            "description": "Transportation",
            "category": "Transportation",
            "merchant": {
                "address": {
                    "address": "10 Station Road",
                    "city": "London",
                    "country": "GB",
                    "latitude": 51.5486,
                    "longitude": -0.0932,
                    "postcode": "EV72 1",
                    "region": "Greater London"
                },
                "created": "2010-01-01T00:00:00Z",
                "group_id": "grp_00008zIcpbBOaAr7TTP3sv",
                "id": "merch_e0ba1b12cfb5facea6b101",
                "logo": "https://example.com/merchant_logo.jpg",
                "emoji": "\ud83c\udf57",
                "name": "BP",
                "category": "online_retail"
            }
        },
        {
            "transaction_id": "txn173",
            "date": "2025-05-26",
            "amount": -23.33,
            "description": "Entertainment",
            "category": "Entertainment",
            "merchant": {
                "address": {
                    "address": "14 High Street",
                    "city": "London",
                    "country": "GB",
                    "latitude": 51.4928,
                    "longitude": -0.1912,
                    "postcode": "QX38 5",
                    "region": "Greater London"
                },
                "created": "2010-01-01T00:00:00Z",
                "group_id": "grp_00008zIcpbBOaAr7TTP3sv",
                "id": "merch_07e593ccebad730c510e78",
                "logo": "https://example.com/merchant_logo.jpg",
                "emoji": "\ud83d\udce6",
                "name": "McDonald's",
                "category": "transportation"
            }
        },
        {
            "transaction_id": "txn174",
            "date": "2025-05-27",
            "amount": 112.75,
            "description": "Salary Deposit",
            "category": "Income",
            "merchant": null
        },
        {
            "transaction_id": "txn175",
            "date": "2025-06-01",
            "amount": -53.54,
            "description": "Shopping",
            "category": "Shopping",
            "merchant": {
                "address": {
                    "address": "23 Station Road",
                    "city": "London",
                    "country": "GB",
                    "latitude": 51.4955,
                    "longitude": -0.0776,
                    "postcode": "MX19 4",
                    "region": "Greater London"
                },
                "created": "2010-01-01T00:00:00Z",
                "group_id": "grp_00008zIcpbBOaAr7TTP3sv",
                "id": "merch_9e93c504b459ce4c341025",
                "logo": "https://example.com/merchant_logo.jpg",
                "emoji": "\ud83c\udfea",
                "name": "Starbucks",
                "category": "restaurant"
            }
        },
        {
            "transaction_id": "txn176",
            "date": "2025-06-04",
            "amount": 89.58,
            "description": "Salary Deposit",
            "category": "Income",
            "merchant": null
        },
        {
            "transaction_id": "txn177",
            "date": "2025-06-06",
            "amount": -293.26,
            "description": "Entertainment",
            "category": "Entertainment",
            "merchant": {
                "address": {
                    "address": "59 Station Road",
                    "city": "London",
                    "country": "GB",
                    "latitude": 51.4687,
                    "longitude": 0.0164,
                    "postcode": "RV72 7",
                    "region": "Greater London"
                },
                "created": "2010-01-01T00:00:00Z",
                "group_id": "grp_00008zIcpbBOaAr7TTP3sv",
                "id": "merch_a4b1b7acd6fb92d2ff0d23",
                "logo": "https://example.com/merchant_logo.jpg",
                "emoji": "\ud83d\udce6",
                "name": "Subway",
                "category": "restaurant"
            }
        },
        {
            "transaction_id": "txn178",
            "date": "2025-06-08",
            "amount": 117.93,
            "description": "Salary Deposit",
            "category": "Income",
            "merchant": null
        },
        {
            "transaction_id": "txn179",
            "date": "2025-06-13",
            "amount": 269.54,
            "description": "Salary Deposit",
            "category": "Income",
            "merchant": null
        },
        {
            "transaction_id": "txn180",
            "date": "2025-06-15",
            "amount": -195.34,
            "description": "Shopping",
            "category": "Shopping",
            "merchant": {
                "address": {
                    "address": "61 Station Road",
                    "city": "London",
                    "country": "GB",
                    "latitude": 51.5294,
                    "longitude": -0.0994,
                    "postcode": "JO75 6",
                    "region": "Greater London"
                },
                "created": "2010-01-01T00:00:00Z",
                "group_id": "grp_00008zIcpbBOaAr7TTP3sv",
                "id": "merch_ac92105f2df80d3e2bcaa8",
                "logo": "https://example.com/merchant_logo.jpg",
                "emoji": "\ud83d\uded2",
                "name": "Tesco",
                "category": "grocery_store"
            }
        },
        {
            "transaction_id": "txn181",
            "date": "2025-06-16",
            "amount": -256.62,
            "description": "Bills & Utilities",
            "category": "Bills & Utilities",
            "merchant": {
                "address": {
                    "address": "7 High Street",
                    "city": "London",
                    "country": "GB",
                    "latitude": 51.4544,
                    "longitude": -0.144,
                    "postcode": "CC73 5",
                    "region": "Greater London"
                },
                "created": "2010-01-01T00:00:00Z",
                "group_id": "grp_00008zIcpbBOaAr7TTP3sv",
                "id": "merch_c4ae702253fffba8a84134",
                "logo": "https://example.com/merchant_logo.jpg",
                "emoji": "\u26fd",
                "name": "Tesco",
                "category": "online_retail"
            }
        },
        {
            "transaction_id": "txn182",
            "date": "2025-06-20",
            "amount": -46.67,
            "description": "Groceries",
            "category": "Groceries",
            "merchant": {
                "address": {
                    "address": "60 Station Road",
                    "city": "London",
                    "country": "GB",
                    "latitude": 51.4881,
                    "longitude": -0.1355,
                    "postcode": "JI36 3",
                    "region": "Greater London"
                },
                "created": "2010-01-01T00:00:00Z",
                "group_id": "grp_00008zIcpbBOaAr7TTP3sv",
                "id": "merch_7eb7ce09335ebe5f82eb20",
                "logo": "https://example.com/merchant_logo.jpg",
                "emoji": "\ud83d\udc57",
                "name": "Amazon",
                "category": "online_retail"
            }
        },
        {
            "transaction_id": "txn183",
            "date": "2025-06-21",
            "amount": 93.15,
            "description": "Salary Deposit",
            "category": "Income",
            "merchant": null
        },
        {
            "transaction_id": "txn184",
            "date": "2025-06-25",
            "amount": -153.72,
            "description": "Entertainment",
            "category": "Entertainment",
            "merchant": {
                "address": {
                    "address": "86 High Street",
                    "city": "London",
                    "country": "GB",
                    "latitude": 51.4848,
                    "longitude": -0.2193,
                    "postcode": "SE23 3",
                    "region": "Greater London"
                },
                "created": "2010-01-01T00:00:00Z",
                "group_id": "grp_00008zIcpbBOaAr7TTP3sv",
                "id": "merch_3e7e63412a15af6a1f5b0c",
                "logo": "https://example.com/merchant_logo.jpg",
                "emoji": "\u2615\ufe0f",
                "name": "BP",
                "category": "restaurant"
            }
        },
        {
            "transaction_id": "txn185",
            "date": "2025-06-26",
            "amount": 59.37,
            "description": "Salary Deposit",
            "category": "Income",
            "merchant": null
        },
        {
            "transaction_id": "txn186",
            "date": "2025-06-28",
            "amount": -288.15,
            "description": "Dining Out",
            "category": "Dining Out",
            "merchant": {
                "address": {
                    "address": "34 Park Avenue",
                    "city": "London",
                    "country": "GB",
                    "latitude": 51.4777,
                    "longitude": -0.2457,
                    "postcode": "PM67 3",
                    "region": "Greater London"
                },
                "created": "2010-01-01T00:00:00Z",
                "group_id": "grp_00008zIcpbBOaAr7TTP3sv",
                "id": "merch_83a4b720c2dc366040a432",
                "logo": "https://example.com/merchant_logo.jpg",
                "emoji": "\ud83c\udf57",
                "name": "Subway",
                "category": "entertainment"
            }
        },
        {
            "transaction_id": "txn187",
            "date": "2025-07-03",
            "amount": -160.81,
            "description": "Dining Out",
            "category": "Dining Out",
            "merchant": {
                "address": {
                    "address": "10 Station Road",
                    "city": "London",
                    "country": "GB",
                    "latitude": 51.486,
                    "longitude": 0.0863,
                    "postcode": "RJ77 3",
                    "region": "Greater London"
                },
                "created": "2010-01-01T00:00:00Z",
                "group_id": "grp_00008zIcpbBOaAr7TTP3sv",
                "id": "merch_0a72b6133acf8d5e9222b3",
                "logo": "https://example.com/merchant_logo.jpg",
                "emoji": "\ud83c\udf57",
                "name": "Uber",
                "category": "entertainment"
            }
        },
        {
            "transaction_id": "txn188",
            "date": "2025-07-06",
            "amount": -150.16,
            "description": "Groceries",
            "category": "Groceries",
            "merchant": {
                "address": {
                    "address": "78 High Street",
                    "city": "London",
                    "country": "GB",
                    "latitude": 51.5367,
                    "longitude": 0.0129,
                    "postcode": "JR16 9",
                    "region": "Greater London"
                },
                "created": "2010-01-01T00:00:00Z",
                "group_id": "grp_00008zIcpbBOaAr7TTP3sv",
                "id": "merch_c6425ac896e827ea0d1369",
                "logo": "https://example.com/merchant_logo.jpg",
                "emoji": "\ud83e\udd6a",
                "name": "Uber",
                "category": "coffee_shop"
            }
        },
        {
            "transaction_id": "txn189",
            "date": "2025-07-09",
            "amount": -243.72,
            "description": "Groceries",
            "category": "Groceries",
            "merchant": {
                "address": {
                    "address": "93 Station Road",
                    "city": "London",
                    "country": "GB",
                    "latitude": 51.5019,
                    "longitude": -0.156,
                    "postcode": "JC59 0",
                    "region": "Greater London"
                },
                "created": "2010-01-01T00:00:00Z",
                "group_id": "grp_00008zIcpbBOaAr7TTP3sv",
                "id": "merch_c3e6b0c60d9b43e4b6bd5f",
                "logo": "https://example.com/merchant_logo.jpg",
                "emoji": "\ud83d\uded2",
                "name": "Amazon",
                "category": "grocery_store"
            }
        },
        {
            "transaction_id": "txn190",
            "date": "2025-07-11",
            "amount": 250.29,
            "description": "Salary Deposit",
            "category": "Income",
            "merchant": null
        },
        {
            "transaction_id": "txn191",
            "date": "2025-07-12",
            "amount": -187.5,
            "description": "Transportation",
            "category": "Transportation",
            "merchant": {
                "address": {
                    "address": "72 Elm Street",
                    "city": "London",
                    "country": "GB",
                    "latitude": 51.5041,
                    "longitude": -0.185,
                    "postcode": "VI07 1",
                    "region": "Greater London"
                },
                "created": "2010-01-01T00:00:00Z",
                "group_id": "grp_00008zIcpbBOaAr7TTP3sv",
                "id": "merch_eafbe23861f88605747773",
                "logo": "https://example.com/merchant_logo.jpg",
                "emoji": "\ud83d\uded2",
                "name": "H&M",
                "category": "fashion_store"
            }
        },
        {
            "transaction_id": "txn192",
            "date": "2025-07-17",
            "amount": -123.84,
            "description": "Groceries",
            "category": "Groceries",
            "merchant": {
                "address": {
                    "address": "13 Elm Street",
                    "city": "London",
                    "country": "GB",
                    "latitude": 51.4525,
                    "longitude": 0.005,
                    "postcode": "FI71 1",
                    "region": "Greater London"
                },
                "created": "2010-01-01T00:00:00Z",
                "group_id": "grp_00008zIcpbBOaAr7TTP3sv",
                "id": "merch_80a51bba70cf05a13348e1",
                "logo": "https://example.com/merchant_logo.jpg",
                "emoji": "\ud83e\udd6a",
                "name": "BP",
                "category": "fashion_store"
            }
        },
        {
            "transaction_id": "txn193",
            "date": "2025-07-22",
            "amount": -207.26,
            "description": "Bills & Utilities",
            "category": "Bills & Utilities",
            "merchant": {
                "address": {
                    "address": "67 Park Avenue",
                    "city": "London",
                    "country": "GB",
                    "latitude": 51.4928,
                    "longitude": 0.0628,
                    "postcode": "WO63 8",
                    "region": "Greater London"
                },
                "created": "2010-01-01T00:00:00Z",
                "group_id": "grp_00008zIcpbBOaAr7TTP3sv",
                "id": "merch_f0d4db2a163f43f22eeeee",
                "logo": "https://example.com/merchant_logo.jpg",
                "emoji": "\ud83d\uded2",
                "name": "Subway",
                "category": "fashion_store"
            }
        },
        {
            "transaction_id": "txn194",
            "date": "2025-07-25",
            "amount": 214.13,
            "description": "Salary Deposit",
            "category": "Income",
            "merchant": null
        },
        {
            "transaction_id": "txn195",
            "date": "2025-07-30",
            "amount": -59.66,
            "description": "Shopping",
            "category": "Shopping",
            "merchant": {
                "address": {
                    "address": "93 Station Road",
                    "city": "London",
                    "country": "GB",
                    "latitude": 51.4715,
                    "longitude": 0.001,
                    "postcode": "YN85 6",
                    "region": "Greater London"
                },
                "created": "2010-01-01T00:00:00Z",
                "group_id": "grp_00008zIcpbBOaAr7TTP3sv",
                "id": "merch_37969f790400ab3f27c9e0",
                "logo": "https://example.com/merchant_logo.jpg",
                "emoji": "\ud83d\udc57",
                "name": "Subway",
                "category": "fashion_store"
            }
        },
        {
            "transaction_id": "txn196",
            "date": "2025-08-01",
            "amount": 142.92,
            "description": "Salary Deposit",
            "category": "Income",
            "merchant": null
        },
        {
            "transaction_id": "txn197",
            "date": "2025-08-04",
            "amount": -140.05,
            "description": "Groceries",
            "category": "Groceries",
            "merchant": {
                "address": {
                    "address": "78 Station Road",
                    "city": "London",
                    "country": "GB",
                    "latitude": 51.53,
                    "longitude": -0.174,
                    "postcode": "QY90 3",
                    "region": "Greater London"
                },
                "created": "2010-01-01T00:00:00Z",
                "group_id": "grp_00008zIcpbBOaAr7TTP3sv",
                "id": "merch_236441b186f40260bb26e0",
                "logo": "https://example.com/merchant_logo.jpg",
                "emoji": "\ud83c\udfa5",
                "name": "Amazon",
                "category": "grocery_store"
            }
        },
        {
            "transaction_id": "txn198",
            "date": "2025-08-09",
            "amount": -277.63,
            "description": "Groceries",
            "category": "Groceries",
            "merchant": {
                "address": {
                    "address": "70 Elm Street",
                    "city": "London",
                    "country": "GB",
                    "latitude": 51.4838,
                    "longitude": 0.0469,
                    "postcode": "JD28 7",
                    "region": "Greater London"
                },
                "created": "2010-01-01T00:00:00Z",
                "group_id": "grp_00008zIcpbBOaAr7TTP3sv",
                "id": "merch_463f40c49dba3fd2529e56",
                "logo": "https://example.com/merchant_logo.jpg",
                "emoji": "\ud83d\udc57",
                "name": "McDonald's",
                "category": "entertainment"
            }
        },
        {
            "transaction_id": "txn199",
            "date": "2025-08-10",
            "amount": 51.01,
            "description": "Salary Deposit",
            "category": "Income",
            "merchant": null
        },
        {
            "transaction_id": "txn200",
            "date": "2025-08-12",
            "amount": -151.36,
            "description": "Dining Out",
            "category": "Dining Out",
            "merchant": {
                "address": {
                    "address": "10 Main Street",
                    "city": "London",
                    "country": "GB",
                    "latitude": 51.4529,
                    "longitude": -0.1961,
                    "postcode": "EU86 7",
                    "region": "Greater London"
                },
                "created": "2010-01-01T00:00:00Z",
                "group_id": "grp_00008zIcpbBOaAr7TTP3sv",
                "id": "merch_c51b517b8a3752b6af2845",
                "logo": "https://example.com/merchant_logo.jpg",
                "emoji": "\ud83e\udd6a",
                "name": "Cinema",
                "category": "coffee_shop"
            }
        },
        {
            "transaction_id": "txn201",
            "date": "2025-08-16",
            "amount": 125.46,
            "description": "Salary Deposit",
            "category": "Income",
            "merchant": null
        },
        {
            "transaction_id": "txn202",
            "date": "2025-08-20",
            "amount": 186.08,
            "description": "Salary Deposit",
            "category": "Income",
            "merchant": null
        },
        {
            "transaction_id": "txn203",
            "date": "2025-08-21",
            "amount": 281.63,
            "description": "Salary Deposit",
            "category": "Income",
            "merchant": null
        },
        {
            "transaction_id": "txn204",
            "date": "2025-08-25",
            "amount": 130.98,
            "description": "Salary Deposit",
            "category": "Income",
            "merchant": null
        },
        {
            "transaction_id": "txn205",
            "date": "2025-08-26",
            "amount": 46.4,
            "description": "Salary Deposit",
            "category": "Income",
            "merchant": null
        },
        {
            "transaction_id": "txn206",
            "date": "2025-08-29",
            "amount": -56.45,
            "description": "Groceries",
            "category": "Groceries",
            "merchant": {
                "address": {
                    "address": "57 Station Road",
                    "city": "London",
                    "country": "GB",
                    "latitude": 51.4715,
                    "longitude": 0.0322,
                    "postcode": "PW65 3",
                    "region": "Greater London"
                },
                "created": "2010-01-01T00:00:00Z",
                "group_id": "grp_00008zIcpbBOaAr7TTP3sv",
                "id": "merch_047e87d0644b9218981cf4",
                "logo": "https://example.com/merchant_logo.jpg",
                "emoji": "\ud83d\udc57",
                "name": "Tesco",
                "category": "fuel_station"
            }
        },
        {
            "transaction_id": "txn207",
            "date": "2025-09-02",
            "amount": 65.62,
            "description": "Salary Deposit",
            "category": "Income",
            "merchant": null
        },
        {
            "transaction_id": "txn208",
            "date": "2025-09-05",
            "amount": -239.28,
            "description": "Dining Out",
            "category": "Dining Out",
            "merchant": {
                "address": {
                    "address": "30 High Street",
                    "city": "London",
                    "country": "GB",
                    "latitude": 51.5168,
                    "longitude": -0.0351,
                    "postcode": "WN50 7",
                    "region": "Greater London"
                },
                "created": "2010-01-01T00:00:00Z",
                "group_id": "grp_00008zIcpbBOaAr7TTP3sv",
                "id": "merch_d2089e04172f6190d3130f",
                "logo": "https://example.com/merchant_logo.jpg",
                "emoji": "\ud83d\udc57",
                "name": "Starbucks",
                "category": "fashion_store"
            }
        },
        {
            "transaction_id": "txn209",
            "date": "2025-09-07",
            "amount": -284.85,
            "description": "Shopping",
            "category": "Shopping",
            "merchant": {
                "address": {
                    "address": "56 Park Avenue",
                    "city": "London",
                    "country": "GB",
                    "latitude": 51.4898,
                    "longitude": 0.0612,
                    "postcode": "WQ70 4",
                    "region": "Greater London"
                },
                "created": "2010-01-01T00:00:00Z",
                "group_id": "grp_00008zIcpbBOaAr7TTP3sv",
                "id": "merch_7bcea9c481c04d9a777ed5",
                "logo": "https://example.com/merchant_logo.jpg",
                "emoji": "\u26fd",
                "name": "BP",
                "category": "transportation"
            }
        },
        {
            "transaction_id": "txn210",
            "date": "2025-09-12",
            "amount": 145.47,
            "description": "Salary Deposit",
            "category": "Income",
            "merchant": null
        },
        {
            "transaction_id": "txn211",
            "date": "2025-09-16",
            "amount": -164.32,
            "description": "Shopping",
            "category": "Shopping",
            "merchant": {
                "address": {
                    "address": "18 Elm Street",
                    "city": "London",
                    "country": "GB",
                    "latitude": 51.5463,
                    "longitude": -0.2418,
                    "postcode": "ZV63 4",
                    "region": "Greater London"
                },
                "created": "2010-01-01T00:00:00Z",
                "group_id": "grp_00008zIcpbBOaAr7TTP3sv",
                "id": "merch_724690bacc87365af640ae",
                "logo": "https://example.com/merchant_logo.jpg",
                "emoji": "\ud83c\udf57",
                "name": "Subway",
                "category": "restaurant"
            }
        },
        {
            "transaction_id": "txn212",
            "date": "2025-09-20",
            "amount": -277.44,
            "description": "Transportation",
            "category": "Transportation",
            "merchant": {
                "address": {
                    "address": "85 Park Avenue",
                    "city": "London",
                    "country": "GB",
                    "latitude": 51.5086,
                    "longitude": -0.234,
                    "postcode": "UZ18 2",
                    "region": "Greater London"
                },
                "created": "2010-01-01T00:00:00Z",
                "group_id": "grp_00008zIcpbBOaAr7TTP3sv",
                "id": "merch_017e3c7a026261c0ead284",
                "logo": "https://example.com/merchant_logo.jpg",
                "emoji": "\ud83d\ude97",
                "name": "Cinema",
                "category": "entertainment"
            }
        },
        {
            "transaction_id": "txn213",
            "date": "2025-09-24",
            "amount": 26.06,
            "description": "Salary Deposit",
            "category": "Income",
            "merchant": null
        },
        {
            "transaction_id": "txn214",
            "date": "2025-09-27",
            "amount": -45.3,
            "description": "Entertainment",
            "category": "Entertainment",
            "merchant": {
                "address": {
                    "address": "23 High Street",
                    "city": "London",
                    "country": "GB",
                    "latitude": 51.5131,
                    "longitude": -0.1395,
                    "postcode": "TY05 9",
                    "region": "Greater London"
                },
                "created": "2010-01-01T00:00:00Z",
                "group_id": "grp_00008zIcpbBOaAr7TTP3sv",
                "id": "merch_e6495b3c2013dc93a2c3fa",
                "logo": "https://example.com/merchant_logo.jpg",
                "emoji": "\u2615\ufe0f",
                "name": "Tesco",
                "category": "grocery_store"
            }
        },
        {
            "transaction_id": "txn215",
            "date": "2025-09-28",
            "amount": -95.64,
            "description": "Bills & Utilities",
            "category": "Bills & Utilities",
            "merchant": {
                "address": {
                    "address": "100 Elm Street",
                    "city": "London",
                    "country": "GB",
                    "latitude": 51.4767,
                    "longitude": -0.2171,
                    "postcode": "PX59 2",
                    "region": "Greater London"
                },
                "created": "2010-01-01T00:00:00Z",
                "group_id": "grp_00008zIcpbBOaAr7TTP3sv",
                "id": "merch_ed4b556cc1d2a4111db947",
                "logo": "https://example.com/merchant_logo.jpg",
                "emoji": "\ud83d\uded2",
                "name": "BP",
                "category": "coffee_shop"
            }
        },
        {
            "transaction_id": "txn216",
            "date": "2025-10-02",
            "amount": 230.45,
            "description": "Salary Deposit",
            "category": "Income",
            "merchant": null
        },
        {
            "transaction_id": "txn217",
            "date": "2025-10-06",
            "amount": -211.63,
            "description": "Entertainment",
            "category": "Entertainment",
            "merchant": {
                "address": {
                    "address": "42 Station Road",
                    "city": "London",
                    "country": "GB",
                    "latitude": 51.4919,
                    "longitude": -0.1397,
                    "postcode": "NB93 6",
                    "region": "Greater London"
                },
                "created": "2010-01-01T00:00:00Z",
                "group_id": "grp_00008zIcpbBOaAr7TTP3sv",
                "id": "merch_ea9ed977a29c9d1c396f9c",
                "logo": "https://example.com/merchant_logo.jpg",
                "emoji": "\ud83c\udfa5",
                "name": "Nando's",
                "category": "online_retail"
            }
        },
        {
            "transaction_id": "txn218",
            "date": "2025-10-11",
            "amount": 223.4,
            "description": "Salary Deposit",
            "category": "Income",
            "merchant": null
        },
        {
            "transaction_id": "txn219",
            "date": "2025-10-16",
            "amount": 78.91,
            "description": "Salary Deposit",
            "category": "Income",
            "merchant": null
        },
        {
            "transaction_id": "txn220",
            "date": "2025-10-17",
            "amount": 226.42,
            "description": "Salary Deposit",
            "category": "Income",
            "merchant": null
        },
        {
            "transaction_id": "txn221",
            "date": "2025-10-19",
            "amount": 231.07,
            "description": "Salary Deposit",
            "category": "Income",
            "merchant": null
        },
        {
            "transaction_id": "txn222",
            "date": "2025-10-20",
            "amount": -108.3,
            "description": "Groceries",
            "category": "Groceries",
            "merchant": {
                "address": {
                    "address": "12 Station Road",
                    "city": "London",
                    "country": "GB",
                    "latitude": 51.5399,
                    "longitude": -0.2323,
                    "postcode": "FZ20 4",
                    "region": "Greater London"
                },
                "created": "2010-01-01T00:00:00Z",
                "group_id": "grp_00008zIcpbBOaAr7TTP3sv",
                "id": "merch_89e4d70652fea8e395f408",
                "logo": "https://example.com/merchant_logo.jpg",
                "emoji": "\ud83e\udd6a",
                "name": "H&M",
                "category": "restaurant"
            }
        },
        {
            "transaction_id": "txn223",
            "date": "2025-10-25",
            "amount": 252.54,
            "description": "Salary Deposit",
            "category": "Income",
            "merchant": null
        },
        {
            "transaction_id": "txn224",
            "date": "2025-10-30",
            "amount": -219.11,
            "description": "Dining Out",
            "category": "Dining Out",
            "merchant": {
                "address": {
                    "address": "39 Station Road",
                    "city": "London",
                    "country": "GB",
                    "latitude": 51.5383,
                    "longitude": -0.0076,
                    "postcode": "HS65 0",
                    "region": "Greater London"
                },
                "created": "2010-01-01T00:00:00Z",
                "group_id": "grp_00008zIcpbBOaAr7TTP3sv",
                "id": "merch_4114cb12ccdc11144d3ee6",
                "logo": "https://example.com/merchant_logo.jpg",
                "emoji": "\ud83c\udfa5",
                "name": "Nando's",
                "category": "fashion_store"
            }
        },
        {
            "transaction_id": "txn225",
            "date": "2025-11-03",
            "amount": 226.26,
            "description": "Salary Deposit",
            "category": "Income",
            "merchant": null
        },
        {
            "transaction_id": "txn226",
            "date": "2025-11-05",
            "amount": 14.75,
            "description": "Salary Deposit",
            "category": "Income",
            "merchant": null
        },
        {
            "transaction_id": "txn227",
            "date": "2025-11-08",
            "amount": 93.65,
            "description": "Salary Deposit",
            "category": "Income",
            "merchant": null
        },
        {
            "transaction_id": "txn228",
            "date": "2025-11-12",
            "amount": 214.07,
            "description": "Salary Deposit",
            "category": "Income",
            "merchant": null
        },
        {
            "transaction_id": "txn229",
            "date": "2025-11-15",
            "amount": -177.42,
            "description": "Bills & Utilities",
            "category": "Bills & Utilities",
            "merchant": {
                "address": {
                    "address": "100 Elm Street",
                    "city": "London",
                    "country": "GB",
                    "latitude": 51.5198,
                    "longitude": 0.0478,
                    "postcode": "NL99 9",
                    "region": "Greater London"
                },
                "created": "2010-01-01T00:00:00Z",
                "group_id": "grp_00008zIcpbBOaAr7TTP3sv",
                "id": "merch_e511ecb8821de82b77e3b1",
                "logo": "https://example.com/merchant_logo.jpg",
                "emoji": "\ud83c\udf57",
                "name": "Starbucks",
                "category": "fuel_station"
            }
        },
        {
            "transaction_id": "txn230",
            "date": "2025-11-20",
            "amount": 204.5,
            "description": "Salary Deposit",
            "category": "Income",
            "merchant": null
        },
        {
            "transaction_id": "txn231",
            "date": "2025-11-22",
            "amount": -57.32,
            "description": "Entertainment",
            "category": "Entertainment",
            "merchant": {
                "address": {
                    "address": "68 Park Avenue",
                    "city": "London",
                    "country": "GB",
                    "latitude": 51.4801,
                    "longitude": -0.2432,
                    "postcode": "EX99 2",
                    "region": "Greater London"
                },
                "created": "2010-01-01T00:00:00Z",
                "group_id": "grp_00008zIcpbBOaAr7TTP3sv",
                "id": "merch_270c49fd69ede6daa17448",
                "logo": "https://example.com/merchant_logo.jpg",
                "emoji": "\u2615\ufe0f",
                "name": "Starbucks",
                "category": "fuel_station"
            }
        },
        {
            "transaction_id": "txn232",
            "date": "2025-11-23",
            "amount": -127.89,
            "description": "Food & Drink",
            "category": "Food & Drink",
            "merchant": {
                "address": {
                    "address": "99 Main Street",
                    "city": "London",
                    "country": "GB",
                    "latitude": 51.4795,
                    "longitude": -0.1367,
                    "postcode": "LO22 4",
                    "region": "Greater London"
                },
                "created": "2010-01-01T00:00:00Z",
                "group_id": "grp_00008zIcpbBOaAr7TTP3sv",
                "id": "merch_bb68d28544320b575682b5",
                "logo": "https://example.com/merchant_logo.jpg",
                "emoji": "\ud83d\udc57",
                "name": "Nando's",
                "category": "transportation"
            }
        },
        {
            "transaction_id": "txn233",
            "date": "2025-11-27",
            "amount": 61.71,
            "description": "Salary Deposit",
            "category": "Income",
            "merchant": null
        },
        {
            "transaction_id": "txn234",
            "date": "2025-11-28",
            "amount": -285.03,
            "description": "Bills & Utilities",
            "category": "Bills & Utilities",
            "merchant": {
                "address": {
                    "address": "78 Main Street",
                    "city": "London",
                    "country": "GB",
                    "latitude": 51.5382,
                    "longitude": -0.1011,
                    "postcode": "DW91 9",
                    "region": "Greater London"
                },
                "created": "2010-01-01T00:00:00Z",
                "group_id": "grp_00008zIcpbBOaAr7TTP3sv",
                "id": "merch_4608d4b84086188cf2787f",
                "logo": "https://example.com/merchant_logo.jpg",
                "emoji": "\u2615\ufe0f",
                "name": "Nando's",
                "category": "entertainment"
            }
        },
        {
            "transaction_id": "txn235",
            "date": "2025-11-29",
            "amount": 192.91,
            "description": "Salary Deposit",
            "category": "Income",
            "merchant": null
        },
        {
            "transaction_id": "txn236",
            "date": "2025-11-30",
            "amount": 203.44,
            "description": "Salary Deposit",
            "category": "Income",
            "merchant": null
        },
        {
            "transaction_id": "txn237",
            "date": "2025-12-05",
            "amount": 77.44,
            "description": "Salary Deposit",
            "category": "Income",
            "merchant": null
        },
        {
            "transaction_id": "txn238",
            "date": "2025-12-07",
            "amount": -160.02,
            "description": "Bills & Utilities",
            "category": "Bills & Utilities",
            "merchant": {
                "address": {
                    "address": "46 High Street",
                    "city": "London",
                    "country": "GB",
                    "latitude": 51.4792,
                    "longitude": -0.0745,
                    "postcode": "LL68 2",
                    "region": "Greater London"
                },
                "created": "2010-01-01T00:00:00Z",
                "group_id": "grp_00008zIcpbBOaAr7TTP3sv",
                "id": "merch_76fdf1ac597e75adc8b9b2",
                "logo": "https://example.com/merchant_logo.jpg",
                "emoji": "\ud83d\udc57",
                "name": "Nando's",
                "category": "transportation"
            }
        },
        {
            "transaction_id": "txn239",
            "date": "2025-12-08",
            "amount": 109.49,
            "description": "Salary Deposit",
            "category": "Income",
            "merchant": null
        },
        {
            "transaction_id": "txn240",
            "date": "2025-12-09",
            "amount": -106.39,
            "description": "Entertainment",
            "category": "Entertainment",
            "merchant": {
                "address": {
                    "address": "65 Elm Street",
                    "city": "London",
                    "country": "GB",
                    "latitude": 51.5402,
                    "longitude": -0.0666,
                    "postcode": "QA12 6",
                    "region": "Greater London"
                },
                "created": "2010-01-01T00:00:00Z",
                "group_id": "grp_00008zIcpbBOaAr7TTP3sv",
                "id": "merch_0f894af87897f360f58df4",
                "logo": "https://example.com/merchant_logo.jpg",
                "emoji": "\ud83c\udf54",
                "name": "Starbucks",
                "category": "transportation"
            }
        },
        {
            "transaction_id": "txn241",
            "date": "2025-12-12",
            "amount": 39.7,
            "description": "Salary Deposit",
            "category": "Income",
            "merchant": null
        },
        {
            "transaction_id": "txn242",
            "date": "2025-12-14",
            "amount": -6.95,
            "description": "Transportation",
            "category": "Transportation",
            "merchant": {
                "address": {
                    "address": "17 Elm Street",
                    "city": "London",
                    "country": "GB",
                    "latitude": 51.4552,
                    "longitude": -0.203,
                    "postcode": "WE10 4",
                    "region": "Greater London"
                },
                "created": "2010-01-01T00:00:00Z",
                "group_id": "grp_00008zIcpbBOaAr7TTP3sv",
                "id": "merch_c6c4e65c39a47d1beb0bb4",
                "logo": "https://example.com/merchant_logo.jpg",
                "emoji": "\u2615\ufe0f",
                "name": "Tesco",
                "category": "entertainment"
            }
        },
        {
            "transaction_id": "txn243",
            "date": "2025-12-17",
            "amount": 38.83,
            "description": "Salary Deposit",
            "category": "Income",
            "merchant": null
        },
        {
            "transaction_id": "txn244",
            "date": "2025-12-22",
            "amount": 15.71,
            "description": "Salary Deposit",
            "category": "Income",
            "merchant": null
        },
        {
            "transaction_id": "txn245",
            "date": "2025-12-27",
            "amount": -116.94,
            "description": "Entertainment",
            "category": "Entertainment",
            "merchant": {
                "address": {
                    "address": "81 Elm Street",
                    "city": "London",
                    "country": "GB",
                    "latitude": 51.4702,
                    "longitude": 0.0721,
                    "postcode": "SM90 9",
                    "region": "Greater London"
                },
                "created": "2010-01-01T00:00:00Z",
                "group_id": "grp_00008zIcpbBOaAr7TTP3sv",
                "id": "merch_5e24c8092c71a54f92a186",
                "logo": "https://example.com/merchant_logo.jpg",
                "emoji": "\u2615\ufe0f",
                "name": "McDonald's",
                "category": "transportation"
            }
        },
        {
            "transaction_id": "txn246",
            "date": "2025-12-29",
            "amount": 63.05,
            "description": "Salary Deposit",
            "category": "Income",
            "merchant": null
        },
        {
            "transaction_id": "txn247",
            "date": "2026-01-01",
            "amount": 205.71,
            "description": "Salary Deposit",
            "category": "Income",
            "merchant": null
        },
        {
            "transaction_id": "txn248",
            "date": "2026-01-04",
            "amount": 93.25,
            "description": "Salary Deposit",
            "category": "Income",
            "merchant": null
        },
        {
            "transaction_id": "txn249",
            "date": "2026-01-08",
            "amount": 195.61,
            "description": "Salary Deposit",
            "category": "Income",
            "merchant": null
        },
        {
            "transaction_id": "txn250",
            "date": "2026-01-11",
            "amount": 263.09,
            "description": "Salary Deposit",
            "category": "Income",
            "merchant": null
        },
        {
            "transaction_id": "txn251",
            "date": "2026-01-12",
            "amount": 63.6,
            "description": "Salary Deposit",
            "category": "Income",
            "merchant": null
        },
        {
            "transaction_id": "txn252",
            "date": "2026-01-14",
            "amount": -161.39,
            "description": "Dining Out",
            "category": "Dining Out",
            "merchant": {
                "address": {
                    "address": "9 Elm Street",
                    "city": "London",
                    "country": "GB",
                    "latitude": 51.4753,
                    "longitude": -0.0232,
                    "postcode": "CX65 7",
                    "region": "Greater London"
                },
                "created": "2010-01-01T00:00:00Z",
                "group_id": "grp_00008zIcpbBOaAr7TTP3sv",
                "id": "merch_e5e4cd85b4fb7a7df643a9",
                "logo": "https://example.com/merchant_logo.jpg",
                "emoji": "\ud83c\udf54",
                "name": "Subway",
                "category": "coffee_shop"
            }
        },
        {
            "transaction_id": "txn253",
            "date": "2026-01-17",
            "amount": 202.26,
            "description": "Salary Deposit",
            "category": "Income",
            "merchant": null
        },
        {
            "transaction_id": "txn254",
            "date": "2026-01-19",
            "amount": -50.25,
            "description": "Shopping",
            "category": "Shopping",
            "merchant": {
                "address": {
                    "address": "75 Elm Street",
                    "city": "London",
                    "country": "GB",
                    "latitude": 51.5242,
                    "longitude": 0.0582,
                    "postcode": "PB43 8",
                    "region": "Greater London"
                },
                "created": "2010-01-01T00:00:00Z",
                "group_id": "grp_00008zIcpbBOaAr7TTP3sv",
                "id": "merch_5187243a79ada09f7e0659",
                "logo": "https://example.com/merchant_logo.jpg",
                "emoji": "\ud83c\udfea",
                "name": "Tesco",
                "category": "online_retail"
            }
        },
        {
            "transaction_id": "txn255",
            "date": "2026-01-21",
            "amount": 183.85,
            "description": "Salary Deposit",
            "category": "Income",
            "merchant": null
        },
        {
            "transaction_id": "txn256",
            "date": "2026-01-23",
            "amount": 255.88,
            "description": "Salary Deposit",
            "category": "Income",
            "merchant": null
        },
        {
            "transaction_id": "txn257",
            "date": "2026-01-25",
            "amount": -274.65,
            "description": "Food & Drink",
            "category": "Food & Drink",
            "merchant": {
                "address": {
                    "address": "14 Main Street",
                    "city": "London",
                    "country": "GB",
                    "latitude": 51.4959,
                    "longitude": -0.0575,
                    "postcode": "NT07 6",
                    "region": "Greater London"
                },
                "created": "2010-01-01T00:00:00Z",
                "group_id": "grp_00008zIcpbBOaAr7TTP3sv",
                "id": "merch_6a029b5636601095e46263",
                "logo": "https://example.com/merchant_logo.jpg",
                "emoji": "\ud83d\uded2",
                "name": "Nando's",
                "category": "fashion_store"
            }
        },
        {
            "transaction_id": "txn258",
            "date": "2026-01-30",
            "amount": -141.98,
            "description": "Groceries",
            "category": "Groceries",
            "merchant": {
                "address": {
                    "address": "27 Elm Street",
                    "city": "London",
                    "country": "GB",
                    "latitude": 51.5462,
                    "longitude": -0.2203,
                    "postcode": "MG78 2",
                    "region": "Greater London"
                },
                "created": "2010-01-01T00:00:00Z",
                "group_id": "grp_00008zIcpbBOaAr7TTP3sv",
                "id": "merch_b9f6c86fc91f1a9a23178c",
                "logo": "https://example.com/merchant_logo.jpg",
                "emoji": "\ud83c\udfa5",
                "name": "Cinema",
                "category": "fuel_station"
            }
        },
        {
            "transaction_id": "txn259",
            "date": "2026-01-31",
            "amount": -96.6,
            "description": "Groceries",
            "category": "Groceries",
            "merchant": {
                "address": {
                    "address": "70 High Street",
                    "city": "London",
                    "country": "GB",
                    "latitude": 51.498,
                    "longitude": -0.0557,
                    "postcode": "HA36 8",
                    "region": "Greater London"
                },
                "created": "2010-01-01T00:00:00Z",
                "group_id": "grp_00008zIcpbBOaAr7TTP3sv",
                "id": "merch_d2c1a9114f39a3d412e912",
                "logo": "https://example.com/merchant_logo.jpg",
                "emoji": "\ud83c\udfea",
                "name": "Amazon",
                "category": "online_retail"
            }
        },
        {
            "transaction_id": "txn260",
            "date": "2026-02-01",
            "amount": -55.38,
            "description": "Food & Drink",
            "category": "Food & Drink",
            "merchant": {
                "address": {
                    "address": "33 Park Avenue",
                    "city": "London",
                    "country": "GB",
                    "latitude": 51.5123,
                    "longitude": -0.2056,
                    "postcode": "VN43 7",
                    "region": "Greater London"
                },
                "created": "2010-01-01T00:00:00Z",
                "group_id": "grp_00008zIcpbBOaAr7TTP3sv",
                "id": "merch_7a187e5b7721be1302714b",
                "logo": "https://example.com/merchant_logo.jpg",
                "emoji": "\ud83d\udc57",
                "name": "Nando's",
                "category": "grocery_store"
            }
        },
        {
            "transaction_id": "txn261",
            "date": "2026-02-03",
            "amount": 180.41,
            "description": "Salary Deposit",
            "category": "Income",
            "merchant": null
        },
        {
            "transaction_id": "txn262",
            "date": "2026-02-07",
            "amount": -164.87,
            "description": "Entertainment",
            "category": "Entertainment",
            "merchant": {
                "address": {
                    "address": "4 Main Street",
                    "city": "London",
                    "country": "GB",
                    "latitude": 51.5115,
                    "longitude": -0.209,
                    "postcode": "YA17 4",
                    "region": "Greater London"
                },
                "created": "2010-01-01T00:00:00Z",
                "group_id": "grp_00008zIcpbBOaAr7TTP3sv",
                "id": "merch_0833866328735b9ea9be67",
                "logo": "https://example.com/merchant_logo.jpg",
                "emoji": "\u26fd",
                "name": "Nando's",
                "category": "coffee_shop"
            }
        },
        {
            "transaction_id": "txn263",
            "date": "2026-02-08",
            "amount": -61.4,
            "description": "Bills & Utilities",
            "category": "Bills & Utilities",
            "merchant": {
                "address": {
                    "address": "28 Main Street",
                    "city": "London",
                    "country": "GB",
                    "latitude": 51.4522,
                    "longitude": -0.2448,
                    "postcode": "MV69 6",
                    "region": "Greater London"
                },
                "created": "2010-01-01T00:00:00Z",
                "group_id": "grp_00008zIcpbBOaAr7TTP3sv",
                "id": "merch_365e552da8420c0831c0e2",
                "logo": "https://example.com/merchant_logo.jpg",
                "emoji": "\ud83e\udd6a",
                "name": "Tesco",
                "category": "entertainment"
            }
        },
        {
            "transaction_id": "txn264",
            "date": "2026-02-12",
            "amount": 78.33,
            "description": "Salary Deposit",
            "category": "Income",
            "merchant": null
        },
        {
            "transaction_id": "txn265",
            "date": "2026-02-15",
            "amount": 162.41,
            "description": "Salary Deposit",
            "category": "Income",
            "merchant": null
        },
        {
            "transaction_id": "txn266",
            "date": "2026-02-20",
            "amount": 68.44,
            "description": "Salary Deposit",
            "category": "Income",
            "merchant": null
        },
        {
            "transaction_id": "txn267",
            "date": "2026-02-21",
            "amount": 124.43,
            "description": "Salary Deposit",
            "category": "Income",
            "merchant": null
        },
        {
            "transaction_id": "txn268",
            "date": "2026-02-25",
            "amount": -238.68,
            "description": "Transportation",
            "category": "Transportation",
            "merchant": {
                "address": {
                    "address": "12 Park Avenue",
                    "city": "London",
                    "country": "GB",
                    "latitude": 51.5054,
                    "longitude": -0.0355,
                    "postcode": "SA96 2",
                    "region": "Greater London"
                },
                "created": "2010-01-01T00:00:00Z",
                "group_id": "grp_00008zIcpbBOaAr7TTP3sv",
                "id": "merch_53f064fa0db94493a7dbf6",
                "logo": "https://example.com/merchant_logo.jpg",
                "emoji": "\ud83d\udce6",
                "name": "Starbucks",
                "category": "online_retail"
            }
        },
        {
            "transaction_id": "txn269",
            "date": "2026-03-01",
            "amount": -172.34,
            "description": "Shopping",
            "category": "Shopping",
            "merchant": {
                "address": {
                    "address": "81 Park Avenue",
                    "city": "London",
                    "country": "GB",
                    "latitude": 51.5216,
                    "longitude": -0.0801,
                    "postcode": "UM77 3",
                    "region": "Greater London"
                },
                "created": "2010-01-01T00:00:00Z",
                "group_id": "grp_00008zIcpbBOaAr7TTP3sv",
                "id": "merch_4760d6429e30251e97b923",
                "logo": "https://example.com/merchant_logo.jpg",
                "emoji": "\u26fd",
                "name": "H&M",
                "category": "coffee_shop"
            }
        },
        {
            "transaction_id": "txn270",
            "date": "2026-03-02",
            "amount": -132.13,
            "description": "Shopping",
            "category": "Shopping",
            "merchant": {
                "address": {
                    "address": "72 Station Road",
                    "city": "London",
                    "country": "GB",
                    "latitude": 51.5368,
                    "longitude": 0.014,
                    "postcode": "MX70 9",
                    "region": "Greater London"
                },
                "created": "2010-01-01T00:00:00Z",
                "group_id": "grp_00008zIcpbBOaAr7TTP3sv",
                "id": "merch_2876c11d6f2b3e1fa37fee",
                "logo": "https://example.com/merchant_logo.jpg",
                "emoji": "\ud83c\udf54",
                "name": "Starbucks",
                "category": "online_retail"
            }
        },
        {
            "transaction_id": "txn271",
            "date": "2026-03-04",
            "amount": -215.47,
            "description": "Entertainment",
            "category": "Entertainment",
            "merchant": {
                "address": {
                    "address": "32 High Street",
                    "city": "London",
                    "country": "GB",
                    "latitude": 51.5407,
                    "longitude": -0.1863,
                    "postcode": "JJ45 9",
                    "region": "Greater London"
                },
                "created": "2010-01-01T00:00:00Z",
                "group_id": "grp_00008zIcpbBOaAr7TTP3sv",
                "id": "merch_2642da31003c0531786f7d",
                "logo": "https://example.com/merchant_logo.jpg",
                "emoji": "\ud83c\udf54",
                "name": "McDonald's",
                "category": "entertainment"
            }
        },
        {
            "transaction_id": "txn272",
            "date": "2026-03-09",
            "amount": 282.2,
            "description": "Salary Deposit",
            "category": "Income",
            "merchant": null
        },
        {
            "transaction_id": "txn273",
            "date": "2026-03-13",
            "amount": 164.56,
            "description": "Salary Deposit",
            "category": "Income",
            "merchant": null
        },
        {
            "transaction_id": "txn274",
            "date": "2026-03-15",
            "amount": 84.17,
            "description": "Salary Deposit",
            "category": "Income",
            "merchant": null
        },
        {
            "transaction_id": "txn275",
            "date": "2026-03-17",
            "amount": -28.59,
            "description": "Dining Out",
            "category": "Dining Out",
            "merchant": {
                "address": {
                    "address": "22 Elm Street",
                    "city": "London",
                    "country": "GB",
                    "latitude": 51.4938,
                    "longitude": -0.2318,
                    "postcode": "DR33 6",
                    "region": "Greater London"
                },
                "created": "2010-01-01T00:00:00Z",
                "group_id": "grp_00008zIcpbBOaAr7TTP3sv",
                "id": "merch_19967c46b238a63a5f4b7a",
                "logo": "https://example.com/merchant_logo.jpg",
                "emoji": "\ud83d\ude97",
                "name": "Starbucks",
                "category": "grocery_store"
            }
        },
        {
            "transaction_id": "txn276",
            "date": "2026-03-18",
            "amount": 89.58,
            "description": "Salary Deposit",
            "category": "Income",
            "merchant": null
        },
        {
            "transaction_id": "txn277",
            "date": "2026-03-23",
            "amount": 207.17,
            "description": "Salary Deposit",
            "category": "Income",
            "merchant": null
        },
        {
            "transaction_id": "txn278",
            "date": "2026-03-27",
            "amount": -243.63,
            "description": "Groceries",
            "category": "Groceries",
            "merchant": {
                "address": {
                    "address": "12 Station Road",
                    "city": "London",
                    "country": "GB",
                    "latitude": 51.5011,
                    "longitude": -0.1578,
                    "postcode": "AQ65 6",
                    "region": "Greater London"
                },
                "created": "2010-01-01T00:00:00Z",
                "group_id": "grp_00008zIcpbBOaAr7TTP3sv",
                "id": "merch_18565e3423c2ba66f3601e",
                "logo": "https://example.com/merchant_logo.jpg",
                "emoji": "\ud83d\uded2",
                "name": "Uber",
                "category": "grocery_store"
            }
        },
        {
            "transaction_id": "txn279",
            "date": "2026-03-28",
            "amount": 0.35,
            "description": "Salary Deposit",
            "category": "Income",
            "merchant": null
        },
        {
            "transaction_id": "txn280",
            "date": "2026-04-01",
            "amount": 6.45,
            "description": "Salary Deposit",
            "category": "Income",
            "merchant": null
        },
        {
            "transaction_id": "txn281",
            "date": "2026-04-06",
            "amount": -153.53,
            "description": "Dining Out",
            "category": "Dining Out",
            "merchant": {
                "address": {
                    "address": "91 Elm Street",
                    "city": "London",
                    "country": "GB",
                    "latitude": 51.4851,
                    "longitude": -0.0079,
                    "postcode": "PA16 8",
                    "region": "Greater London"
                },
                "created": "2010-01-01T00:00:00Z",
                "group_id": "grp_00008zIcpbBOaAr7TTP3sv",
                "id": "merch_6dee8917014418c7faa96e",
                "logo": "https://example.com/merchant_logo.jpg",
                "emoji": "\ud83c\udf57",
                "name": "H&M",
                "category": "entertainment"
            }
        },
        {
            "transaction_id": "txn282",
            "date": "2026-04-09",
            "amount": -221.39,
            "description": "Transportation",
            "category": "Transportation",
            "merchant": {
                "address": {
                    "address": "5 Station Road",
                    "city": "London",
                    "country": "GB",
                    "latitude": 51.4698,
                    "longitude": -0.0253,
                    "postcode": "ZK09 2",
                    "region": "Greater London"
                },
                "created": "2010-01-01T00:00:00Z",
                "group_id": "grp_00008zIcpbBOaAr7TTP3sv",
                "id": "merch_553d04505bdf31039d7914",
                "logo": "https://example.com/merchant_logo.jpg",
                "emoji": "\ud83d\udce6",
                "name": "Cinema",
                "category": "fashion_store"
            }
        },
        {
            "transaction_id": "txn283",
            "date": "2026-04-13",
            "amount": 276.28,
            "description": "Salary Deposit",
            "category": "Income",
            "merchant": null
        },
        {
            "transaction_id": "txn284",
            "date": "2026-04-17",
            "amount": -249.03,
            "description": "Transportation",
            "category": "Transportation",
            "merchant": {
                "address": {
                    "address": "67 Elm Street",
                    "city": "London",
                    "country": "GB",
                    "latitude": 51.4814,
                    "longitude": 0.0732,
                    "postcode": "UQ94 5",
                    "region": "Greater London"
                },
                "created": "2010-01-01T00:00:00Z",
                "group_id": "grp_00008zIcpbBOaAr7TTP3sv",
                "id": "merch_4ce6a7aa026a48ba7b0c55",
                "logo": "https://example.com/merchant_logo.jpg",
                "emoji": "\u2615\ufe0f",
                "name": "Starbucks",
                "category": "fuel_station"
            }
        },
        {
            "transaction_id": "txn285",
            "date": "2026-04-21",
            "amount": -220.64,
            "description": "Food & Drink",
            "category": "Food & Drink",
            "merchant": {
                "address": {
                    "address": "74 Main Street",
                    "city": "London",
                    "country": "GB",
                    "latitude": 51.5496,
                    "longitude": -0.2191,
                    "postcode": "TN96 7",
                    "region": "Greater London"
                },
                "created": "2010-01-01T00:00:00Z",
                "group_id": "grp_00008zIcpbBOaAr7TTP3sv",
                "id": "merch_e9ecd267df837d78433999",
                "logo": "https://example.com/merchant_logo.jpg",
                "emoji": "\ud83d\uded2",
                "name": "Starbucks",
                "category": "coffee_shop"
            }
        },
        {
            "transaction_id": "txn286",
            "date": "2026-04-24",
            "amount": 291.4,
            "description": "Salary Deposit",
            "category": "Income",
            "merchant": null
        },
        {
            "transaction_id": "txn287",
            "date": "2026-04-28",
            "amount": -263.51,
            "description": "Food & Drink",
            "category": "Food & Drink",
            "merchant": {
                "address": {
                    "address": "84 Park Avenue",
                    "city": "London",
                    "country": "GB",
                    "latitude": 51.4514,
                    "longitude": -0.2209,
                    "postcode": "GP62 1",
                    "region": "Greater London"
                },
                "created": "2010-01-01T00:00:00Z",
                "group_id": "grp_00008zIcpbBOaAr7TTP3sv",
                "id": "merch_2bbfa2656cf5f3122f657d",
                "logo": "https://example.com/merchant_logo.jpg",
                "emoji": "\u2615\ufe0f",
                "name": "Starbucks",
                "category": "coffee_shop"
            }
        },
        {
            "transaction_id": "txn288",
            "date": "2026-04-29",
            "amount": 152.06,
            "description": "Salary Deposit",
            "category": "Income",
            "merchant": null
        },
        {
            "transaction_id": "txn289",
            "date": "2026-05-03",
            "amount": 246.8,
            "description": "Salary Deposit",
            "category": "Income",
            "merchant": null
        },
        {
            "transaction_id": "txn290",
            "date": "2026-05-05",
            "amount": -50.01,
            "description": "Shopping",
            "category": "Shopping",
            "merchant": {
                "address": {
                    "address": "69 Park Avenue",
                    "city": "London",
                    "country": "GB",
                    "latitude": 51.495,
                    "longitude": -0.2422,
                    "postcode": "TP03 7",
                    "region": "Greater London"
                },
                "created": "2010-01-01T00:00:00Z",
                "group_id": "grp_00008zIcpbBOaAr7TTP3sv",
                "id": "merch_040b4796a3e8b600319aa0",
                "logo": "https://example.com/merchant_logo.jpg",
                "emoji": "\ud83c\udfea",
                "name": "Starbucks",
                "category": "fuel_station"
            }
        },
        {
            "transaction_id": "txn291",
            "date": "2026-05-08",
            "amount": 162.19,
            "description": "Salary Deposit",
            "category": "Income",
            "merchant": null
        },
        {
            "transaction_id": "txn292",
            "date": "2026-05-12",
            "amount": -272.07,
            "description": "Entertainment",
            "category": "Entertainment",
            "merchant": {
                "address": {
                    "address": "70 High Street",
                    "city": "London",
                    "country": "GB",
                    "latitude": 51.5189,
                    "longitude": 0.0798,
                    "postcode": "TB07 0",
                    "region": "Greater London"
                },
                "created": "2010-01-01T00:00:00Z",
                "group_id": "grp_00008zIcpbBOaAr7TTP3sv",
                "id": "merch_09fe308195577eff9c7199",
                "logo": "https://example.com/merchant_logo.jpg",
                "emoji": "\u26fd",
                "name": "Tesco",
                "category": "online_retail"
            }
        },
        {
            "transaction_id": "txn293",
            "date": "2026-05-14",
            "amount": -30.19,
            "description": "Dining Out",
            "category": "Dining Out",
            "merchant": {
                "address": {
                    "address": "29 Park Avenue",
                    "city": "London",
                    "country": "GB",
                    "latitude": 51.5146,
                    "longitude": -0.1062,
                    "postcode": "HO19 6",
                    "region": "Greater London"
                },
                "created": "2010-01-01T00:00:00Z",
                "group_id": "grp_00008zIcpbBOaAr7TTP3sv",
                "id": "merch_8811e9483a340cdd1226e4",
                "logo": "https://example.com/merchant_logo.jpg",
                "emoji": "\ud83c\udf54",
                "name": "Nando's",
                "category": "transportation"
            }
        },
        {
            "transaction_id": "txn294",
            "date": "2026-05-15",
            "amount": -163.48,
            "description": "Bills & Utilities",
            "category": "Bills & Utilities",
            "merchant": {
                "address": {
                    "address": "44 Elm Street",
                    "city": "London",
                    "country": "GB",
                    "latitude": 51.5349,
                    "longitude": -0.0919,
                    "postcode": "DB70 7",
                    "region": "Greater London"
                },
                "created": "2010-01-01T00:00:00Z",
                "group_id": "grp_00008zIcpbBOaAr7TTP3sv",
                "id": "merch_2603c84afd6815a22412ec",
                "logo": "https://example.com/merchant_logo.jpg",
                "emoji": "\ud83d\udc57",
                "name": "Subway",
                "category": "fashion_store"
            }
        },
        {
            "transaction_id": "txn295",
            "date": "2026-05-18",
            "amount": -237.91,
            "description": "Bills & Utilities",
            "category": "Bills & Utilities",
            "merchant": {
                "address": {
                    "address": "65 Elm Street",
                    "city": "London",
                    "country": "GB",
                    "latitude": 51.4916,
                    "longitude": -0.0931,
                    "postcode": "GI44 7",
                    "region": "Greater London"
                },
                "created": "2010-01-01T00:00:00Z",
                "group_id": "grp_00008zIcpbBOaAr7TTP3sv",
                "id": "merch_39b0e6f8a159872460a17e",
                "logo": "https://example.com/merchant_logo.jpg",
                "emoji": "\u2615\ufe0f",
                "name": "Tesco",
                "category": "online_retail"
            }
        },
        {
            "transaction_id": "txn296",
            "date": "2026-05-23",
            "amount": 86.67,
            "description": "Salary Deposit",
            "category": "Income",
            "merchant": null
        },
        {
            "transaction_id": "txn297",
            "date": "2026-05-25",
            "amount": 252.12,
            "description": "Salary Deposit",
            "category": "Income",
            "merchant": null
        },
        {
            "transaction_id": "txn298",
            "date": "2026-05-26",
            "amount": 246.36,
            "description": "Salary Deposit",
            "category": "Income",
            "merchant": null
        },
        {
            "transaction_id": "txn299",
            "date": "2026-05-27",
            "amount": 165.96,
            "description": "Salary Deposit",
            "category": "Income",
            "merchant": null
        },
        {
            "transaction_id": "txn300",
            "date": "2026-05-29",
            "amount": -247.03,
            "description": "Food & Drink",
            "category": "Food & Drink",
            "merchant": {
                "address": {
                    "address": "78 Main Street",
                    "city": "London",
                    "country": "GB",
                    "latitude": 51.5416,
                    "longitude": 0.0132,
                    "postcode": "SW91 0",
                    "region": "Greater London"
                },
                "created": "2010-01-01T00:00:00Z",
                "group_id": "grp_00008zIcpbBOaAr7TTP3sv",
                "id": "merch_d74722458046cadab5e012",
                "logo": "https://example.com/merchant_logo.jpg",
                "emoji": "\u2615\ufe0f",
                "name": "Nando's",
                "category": "coffee_shop"
            }
        }
    ]
}